Region,Source_Layer,Country (Short Form),Facility Name,Site Name,Deposit Name,Commodity Type,Commodity,Commodity 1,Facility Status,Exploration Status,Annual Production Capacity,Capacity Units,Major Operating Company,Owner Name,USGS Facility ID,Label,Facility Type,Commodity Product,Multiple Commodities,Multiple Products,Year,Capacity Notes,Facility Comments,Shared Capacity,Location Description,DD Latitude,DD Longitude,Location Accuracy,GIS Data Source,Mineral Facility Data Source,Equity Owner 1,Equity Owner 2,Equity Owner 3,Equity Owner 4,ADM1 Name,Data Source,Alternate Name(s),Deposit ID,Commodity 2,Commodity 3,Commodity 4,Commodity 5,Commodity 6,Commodity 7,Commodity 8,Deposit Type,USGS MRData ID,Exploration ID,Location Notes,USGS WMED ID,Project Active,Owner Type,Owner Share,Feature Type,Product Notes,Operating Status,Location Confidence,Equity Owner 5,Alternate Name,AMD1 Name,Source Year,Location Source 1,Location Source 2,Operation Source 1,Operation Source 2,Company Source 1,Company Source 2,Commodity Source 1,Commodity Source 2,DsgAttr9,Equity Owner 6,Capacity Source 1,Capacity Source 2,Other Source,Source notes,Development ID,Development Status,Operating Stage Source 1,Operating Stage Source 2,Commodity 9,Commodity 10,Commodity 11,Critical Commodity,ROWID,ISO_CC,FACID_NUM,Estimated Capacity,Source ID,geometry,Name,Status,Reference Year,Owner
Africa,AFR_Mineral_Facilities,Madagascar,Gallois Mine,,,Industrial,Graphite,,Assumed Active,,150000.0,mt,Etablissements Gallois S.A.,,MDG007,MDG7,Mines and Quarries,<null>,N,N,2018.0,<null>,Another mining site associated with facility can be found directly to the west of Toamasina.,<null>,Near Tamatave,-19.230198,48.945072,A,Google Earth-104,"USGS 2018 Minerals Yearbook, Vol. III, Madagascar Country Chapter, Table 2; various other USGS, industry, geologic research, and company reports; various mining databases",<null>,<null>,<null>,<null>,Toamasina,,,,,,,,,,,,,,,,,,,Mines and Quarries,,,,,,,,,,,,,,,,,,,,,,,,,,,,,,,,,,,POINT Z (48.94507199937652 -19.2301979998893 0),Gallois Mine,Assumed Active,2018.0,<null>
Africa,AFR_Mineral_Facilities,Madagascar,Graphmada Mine,,,Industrial,Graphite,,Assumed Active,,6000.0,mt,Bass Metals Ltd.,,MDG008,MDG8,Mines and Quarries,<null>,N,N,2018.0,<null>,<null>,<null>,<null>,-18.918806,48.991245,A,Google Earth-105,"USGS 2018 Minerals Yearbook, Vol. III, Madagascar Country Chapter, Table 2; various other USGS, industry, geologic research, and company reports; various mining databases",<null>,<null>,<null>,<null>,Toamasina,,,,,,,,,,,,,,,,,,,Mines and Quarries,,,,,,,,,,,,,,,,,,,,,,,,,,,,,,,,,,,POINT Z (48.99124500048845 -18.918806000308052 0),Graphmada Mine,Assumed Active,2018.0,<null>
Africa,AFR_Mineral_Facilities,Madagascar,Mine in Atsinanana Region,,,Industrial,Graphite,,Assumed Active,,10000.0,mt,Power Stand Development (H.K.) Ltd.,,MDG023,MDG23,Mines and Quarries,<null>,N,N,2018.0,<null>,<null>,<null>,Atsinanana Region,-18.445449,49.218047,A,Google Earth,"USGS 2018 Minerals Yearbook, Vol. III, Madagascar Country Chapter, Table 2; various other USGS, industry, geologic research, and company reports; various mining databases",<null>,<null>,<null>,<null>,Toamasina,,,,,,,,,,,,,,,,,,,Mines and Quarries,,,,,,,,,,,,,,,,,,,,,,,,,,,,,,,,,,,POINT Z (49.21804700015491 -18.445448999997097 0),Mine in Atsinanana Region,Assumed Active,2018.0,<null>
Africa,AFR_Mineral_Facilities,Madagascar,Sahamamy-Sahasoa Mine,,,Industrial,Graphite,,Assumed Active,,3000.0,mt,Tirupati Graphite Plc,,MDG044,MDG45,Mines and Quarries,<null>,N,N,2018.0,<null>,<null>,<null>,<null>,-18.568337,48.9757,A,Google Earth-172,"USGS 2018 Minerals Yearbook, Vol. III, Madagascar Country Chapter, Table 2; various other USGS, industry, geologic research, and company reports; various mining databases",<null>,<null>,<null>,<null>,Toamasina,,,,,,,,,,,,,,,,,,,Mines and Quarries,,,,,,,,,,,,,,,,,,,,,,,,,,,,,,,,,,,POINT Z (48.975700000598465 -18.568337000258055 0),Sahamamy-Sahasoa Mine,Assumed Active,2018.0,<null>
Africa,AFR_Mineral_Facilities,Mozambique,Ancuabe Graphite Mine,,,Industrial,Graphite,,Assumed Active,,9000.0,mt,GK Ancuabe Graphite Mine S.A.,,MOZ001,MOZ1,Mines and Quarries,Graphite,N,N,2018.0,<null>,<null>,<null>,Cabo Delgado Province,-13.004066,40.000666,A,SNL,"USGS 2018 Minerals Yearbook, Vol. III, Mozambique Country Chapter, Table 2; various other USGS, industry, geologic research, and company reports; various mining databases",Graphit Kropfmühl GmbH [90%],"Empresa Moçambicana de Exploração Mineira, S.A. (EMEM) [10%]",<null>,<null>,Cabo Delgado,,,,,,,,,,,,,,,,,,,Mines and Quarries,,,,,,,,,,,,,,,,,,,,,,,,,,,,,,,,,,,POINT Z (40.00066600014878 -13.004066000344267 0),Ancuabe Graphite Mine,Assumed Active,2018.0,Graphit Kropfmühl GmbH [90%]
Africa,AFR_Mineral_Facilities,Mozambique,Balama Graphite Operation,,,Industrial,Graphite,,Assumed Active,,350.0,mt,Syrah Resources Ltd.,,MOZ002,MOZ2,Mines and Quarries,Graphite,N,N,2018.0,<null>,<null>,<null>,Cabo Delgado Province,-13.309337,38.661168,A,SNL,"USGS 2018 Minerals Yearbook, Vol. III, Mozambique Country Chapter, Table 2; various other USGS, industry, geologic research, and company reports; various mining databases",Twigg Exploration and Mining Limitada [100%],<null>,<null>,<null>,Cabo Delgado,,,,,,,,,,,,,,,,,,,Mines and Quarries,,,,,,,,,,,,,,,,,,,,,,,,,,,,,,,,,,,POINT Z (38.66116799991863 -13.309336999719733 0),Balama Graphite Operation,Assumed Active,2018.0,Twigg Exploration and Mining Limitada [100%]
Africa,AFR_Mineral_Facilities,Namibia,Okanjande Mine,,,Industrial,Graphite,,C&M,,20000.0,mt,Imerys Gecko Holdings (Pty) Ltd.,,NAM017,NAM17,Mines and Quarries,Graphite,N,N,2018.0,<null>,Facility on care-and-maintenance status.,<null>,14 kilometers south of Otjiwarongo,-20.599951,16.622975,A,Google Earth,"USGS 2018 Minerals Yearbook, Vol. III, Namibia Country Chapter, Table 2; various other USGS, industry, geologic research, and company reports; various mining databases",Imerys Group [51%],Gecko Namibia (Pty) Ltd. [49%],<null>,<null>,Otjozondjupa,,,,,,,,,,,,,,,,,,,Mines and Quarries,,,,,,,,,,,,,,,,,,,,,,,,,,,,,,,,,,,POINT Z (16.62297500015245 -20.599950999815405 0),Okanjande Mine,C&M,2018.0,Imerys Group [51%]
Africa,AFR_Mineral_Facilities,Zimbabwe,Lynx Graphite Mine,,,Industrial,Graphite,,Assumed Active,,-999.0,,Zimbabwe German Graphite Mines (Private) Ltd.,,ZWE043,ZWE43,Mines and Quarries,Graphite,N,N,2018.0,<null>,<null>,<null>,Karoi,-16.597273,29.453626,A,USGS Global GeoDB,"USGS 2018 Minerals Yearbook, Vol. III, Zimbabwe Country Chapter, Table 2; various other USGS, industry, geologic research, and company reports; various mining databases",Graphite Kropmühl division of AMG Advanced Metallurgical Group N.V. [50%],Zimbabwe Mining Development Corp. (ZMDC) [50%],<null>,<null>,Mashonaland West,,,,,,,,,,,,,,,,,,,Mines and Quarries,,,,,,,,,,,,,,,,,,,,,,,,,,,,,,,,,,,POINT Z (29.453625999520057 -16.59727300019358 0),Lynx Graphite Mine,Assumed Active,2018.0,Graphite Kropmühl division of AMG Advanced Metallurgical Group N.V. [50%]
Africa,AFR_Mineral_Deposits,Kenya,,,Chawia,,Graphite,Graphite,,,,,,,,KEd7,,,,,,,,,,-3.4648,38.38447,,,,,,,,Taita Taveta,USGS PP1802 and accompanying USGS Data Release (https://mrdata.usgs.gov/pp1802/); USGS OFR2005-1294 (https://mrdata.usgs.gov/major-deposits/), ,KEd007,,,,,,,,"Crystalline Graphite, metamorphic",1114.0,,,,,,,,,,,,,,,,,,,,,,,,,,,,,,,,,,,,,,,,,,POINT Z (38.38447000007403 -3.464799999773504 0),Chawia,,,
Africa,AFR_Mineral_Deposits,Kenya,,,Oldoinyo,,Graphite,Graphite,,,,,,,,KEd8,,,,,,,,,,0.74994,37.0,,,,,,,,Isiolo,USGS PP1802 and accompanying USGS Data Release (https://mrdata.usgs.gov/pp1802/); USGS OFR2005-1294 (https://mrdata.usgs.gov/major-deposits/),Nyiro,KEd008,,,,,,,,"Crystalline Graphite, metamorphic",1115.0,,,,,,,,,,,,,,,,,,,,,,,,,,,,,,,,,,,,,,,,,,POINT Z (36.999999899800855 0.749940000311824 0),Oldoinyo,,,
Africa,AFR_Mineral_Deposits,Madagascar,,,Ambatomitamba Sahanovo Area,,Graphite,Graphite,,,,,,,,MGd19,,,,,,,,,,-18.34688,49.10105,,,,,,,,Toamasina,USGS PP1802 and accompanying USGS Data Release (https://mrdata.usgs.gov/pp1802/), ,MGd019,,,,,,,,Crystalline Graphite,1120.0,,,,,,,,,,,,,,,,,,,,,,,,,,,,,,,,,,,,,,,,,,POINT Z (49.10104989988588 -18.346880000319857 0),Ambatomitamba Sahanovo Area,,,
Africa,AFR_Mineral_Deposits,Madagascar,,,Perinet,,Graphite,Graphite,,,,,,,,MGd20,,,,,,,,,,-18.93014,48.45106,,,,,,,,Toamasina,USGS PP1802 and accompanying USGS Data Release (https://mrdata.usgs.gov/pp1802/); USGS OFR2005-1294 (https://mrdata.usgs.gov/major-deposits/),Ambatovy Area,MGd020,,,,,,,,"Crystalline Graphite, metamorphic",1121.0,,,,,,,,,,,,,,,,,,,,,,,,,,,,,,,,,,,,,,,,,,POINT Z (48.451059899863196 -18.930140000469066 0),Perinet,,,
Africa,AFR_Mineral_Deposits,South Africa,,,Gumbu Graphite Mine,,Graphite,Graphite,,,,,,,,ZAd183,,,,,,,,,,-22.31516,30.66667,,,,,,,,Limpopo,USGS PP1802 and accompanying USGS Data Release (https://mrdata.usgs.gov/pp1802/); USGS OFR2005-1294 (https://mrdata.usgs.gov/major-deposits/), ,ZAd183,,,,,,,,"Crystalline Graphite, metamorphic",1135.0,,,,,,,,,,,,,,,,,,,,,,,,,,,,,,,,,,,,,,,,,,POINT Z (30.666669900116062 -22.315158999713447 0),Gumbu Graphite Mine,,,
Africa,AFR_Mineral_Deposits,South Africa,,,Malonga Graphite Mine,,Graphite,Graphite,,,,,,,,ZAd184,,,,,,,,,,-22.64848,30.88333,,,,,,,,Limpopo,USGS PP1802 and accompanying USGS Data Release (https://mrdata.usgs.gov/pp1802/); USGS OFR2005-1294 (https://mrdata.usgs.gov/major-deposits/), ,ZAd184,,,,,,,,"Amorphous Graphite, metamorphic",1136.0,,,,,,,,,,,,,,,,,,,,,,,,,,,,,,,,,,,,,,,,,,POINT Z (30.88332990027004 -22.64847899918618 0),Malonga Graphite Mine,,,
Africa,AFR_Mineral_Deposits,Zimbabwe,,,Lynx Mine,,Graphite,Graphite,,,,,,,,ZWd94,,,,,,,,,,-16.43043,29.30134,,,,,,,,Mashonaland West,USGS PP1802 and accompanying USGS Data Release (https://mrdata.usgs.gov/pp1802/), ,ZWd094,,,,,,,,Crystalline Graphite,1173.0,,,,,,,,,,,,,,,,,,,,,,,,,,,,,,,,,,,,,,,,,,POINT Z (29.301339899837444 -16.4304290000793 0),Lynx Mine,,,
Africa,AFR_Mineral_Deposits,Madagascar,,,Ampangadiatany,,Graphite,Graphite,,,,,,,,MGd21,,,,,,,,,,-19.408,48.891,,,,,,,,Toamasina,USGS PP1802 and accompanying USGS Data Release (https://mrdata.usgs.gov/pp1802/); USGS OFR2005-1294 (https://mrdata.usgs.gov/major-deposits/), ,MGd021,,,,,,,,"Crystalline Graphite, metamorphic",1880.0,,,,,,,,,,,,,,,,,,,,,,,,,,,,,,,,,,,,,,,,,,POINT Z (48.890999999703126 -19.408000000448453 0),Ampangadiatany,,,
Africa,AFR_Mineral_Deposits,Madagascar,,,Vatomandry Area,,Graphite,Graphite,,,,,,,,MGd22,,,,,,,,,,-19.341,48.945,,,,,,,,Toamasina,USGS PP1802 and accompanying USGS Data Release (https://mrdata.usgs.gov/pp1802/), ,MGd022,,,,,,,,Crystalline Graphite,1904.0,,,,,,,,,,,,,,,,,,,,,,,,,,,,,,,,,,,,,,,,,,POINT Z (48.94500000024408 -19.34100000074318 0),Vatomandry Area,,,
Africa,AFR_Mineral_Deposits,Madagascar,,,Sahamamy,,Graphite,Graphite,,,,,,,,MGd23,,,,,,,,,,-18.5833,48.9167,,,,,,,,Toamasina,USGS OFR2005-1294 (https://mrdata.usgs.gov/major-deposits/), ,MGd023,,,,,,,,Metamorphic,2473.0,,,,,,,,,,,,,,,,,,,,,,,,,,,,,,,,,,,,,,,,,,POINT Z (48.91669999951756 -18.583300000390636 0),Sahamamy,,,
Africa,AFR_Mineral_Deposits,Madagascar,,,Marovinsky,,Graphite,Graphite,,,,,,,,MGd24,,,,,,,,,,-19.2333,48.95,,,,,,,,Toamasina,USGS OFR2005-1294 (https://mrdata.usgs.gov/major-deposits/), ,MGd024,,,,,,,,Metamorphic,2471.0,,,,,,,,,,,,,,,,,,,,,,,,,,,,,,,,,,,,,,,,,,POINT Z (48.95000000006104 -19.233299999974065 0),Marovinsky,,,
Africa,AFR_Mineral_Deposits,Libya,,,Gargaresh,,Graphite,Graphite,,,,,,,,LYd2,,,,,,,,,,32.8251,12.9676,,,,,,,,Al Jifarah,USGS OFR2005-1294 (https://mrdata.usgs.gov/major-deposits/), ,LYd002,,,,,,,,Metamorphic,2449.0,,,,,,,,,,,,,,,,,,,,,,,,,,,,,,,,,,,,,,,,,,POINT Z (12.967672003425719 32.82514603150156 0),Gargaresh,,,
Africa,AFR_Mineral_Deposits,Madagascar,,,Ambatomitamba,,Graphite,Graphite,,,,,,,,MGd25,,,,,,,,,,-18.35,48.9833,,,,,,,,Toamasina,USGS OFR2005-1294 (https://mrdata.usgs.gov/major-deposits/), ,MGd025,,,,,,,,Metamorphic,2465.0,,,,,,,,,,,,,,,,,,,,,,,,,,,,,,,,,,,,,,,,,,POINT Z (48.98329999970514 -18.349999999975353 0),Ambatomitamba,,,
Africa,AFR_Mineral_Deposits,Madagascar,,,Andasifahatelo Mine,,Graphite,Graphite,,,,,,,,MGd26,,,,,,,,,,-18.9,48.4333,,,,,,,,Toamasina,USGS OFR2005-1294 (https://mrdata.usgs.gov/major-deposits/), ,MGd026,,,,,,,,Metamorphic,2467.0,,,,,,,,,,,,,,,,,,,,,,,,,,,,,,,,,,,,,,,,,,POINT Z (48.43330000005761 -18.899999999622878 0),Andasifahatelo Mine,,,
Africa,AFR_Mineral_Deposits,Madagascar,,,Antsirakambo,,Graphite,Graphite,,,,,,,,MGd27,,,,,,,,,,-18.4833,49.15,,,,,,,,Toamasina,USGS OFR2005-1294 (https://mrdata.usgs.gov/major-deposits/), ,MGd027,,,,,,,,Metamorphic,2468.0,,,,,,,,,,,,,,,,,,,,,,,,,,,,,,,,,,,,,,,,,,POINT Z (49.149999999932845 -18.483300000454733 0),Antsirakambo,,,
Africa,AFR_Mineral_Deposits,Madagascar,,,Antsiribe,,Graphite,Graphite,,,,,,,,MGd28,,,,,,,,,,-18.2667,49.1333,,,,,,,,Toamasina,USGS OFR2005-1294 (https://mrdata.usgs.gov/major-deposits/), ,MGd028,,,,,,,,Metamorphic,2469.0,,,,,,,,,,,,,,,,,,,,,,,,,,,,,,,,,,,,,,,,,,POINT Z (49.133299999608994 -18.26669999946398 0),Antsiribe,,,
Africa,AFR_Mineral_Deposits,Madagascar,,,Faliarano,,Graphite,Graphite,,,,,,,,MGd29,,,,,,,,,,-18.8833,48.4167,,,,,,,,Toamasina,USGS OFR2005-1294 (https://mrdata.usgs.gov/major-deposits/), ,MGd029,,,,,,,,Metamorphic,2470.0,,,,,,,,,,,,,,,,,,,,,,,,,,,,,,,,,,,,,,,,,,POINT Z (48.416699999838045 -18.883299999299027 0),Faliarano,,,
Africa,AFR_Mineral_Deposits,Madagascar,,,Sahanavo,,Graphite,Graphite,,,,,,,,MGd30,,,,,,,,,,-18.45,48.9167,,,,,,,,Toamasina,USGS OFR2005-1294 (https://mrdata.usgs.gov/major-deposits/), ,MGd030,,,,,,,,Metamorphic,2474.0,,,,,,,,,,,,,,,,,,,,,,,,,,,,,,,,,,,,,,,,,,POINT Z (48.91669999951756 -18.449999999911256 0),Sahanavo,,,
Africa,AFR_Mineral_Deposits,Madagascar,,,Tamataue,,Graphite,Graphite,,,,,,,,MGd31,,,,,,,,,,-18.1667,49.3833,,,,,,,,Toamasina,USGS OFR2005-1294 (https://mrdata.usgs.gov/major-deposits/), ,MGd031,,,,,,,,Metamorphic,2475.0,,,,,,,,,,,,,,,,,,,,,,,,,,,,,,,,,,,,,,,,,,POINT Z (49.38330000034813 -18.166699999528078 0),Tamataue,,,
Africa,AFR_Mineral_Deposits,Madagascar,,,Tsaravoniany,,Graphite,Graphite,,,,,,,,MGd32,,,,,,,,,,-18.75,48.4333,,,,,,,,Toamasina,USGS OFR2005-1294 (https://mrdata.usgs.gov/major-deposits/), ,MGd032,,,,,,,,Metamorphic,2476.0,,,,,,,,,,,,,,,,,,,,,,,,,,,,,,,,,,,,,,,,,,POINT Z (48.43330000005761 -18.750000000618343 0),Tsaravoniany,,,
Africa,AFR_Mineral_Deposits,Tanzania,,,Merelani,,Gem,Gem,,,,,,,,TZd7,,,,,,,,,,-3.56667,37.03333,,,,,,,,Manyara,USGS OFR2005-1294 (https://mrdata.usgs.gov/major-deposits/), ,TZd007,Graphite,,,,,,,Igneous,2947.0,,,,,,,,,,,,,,,,,,,,,,,,,,,,,,,,,,,,,,,,,,POINT Z (37.03332999975066 -3.566669999410749 0),Merelani,,,
Africa,AFR_Mineral_Deposits,Zimbabwe,,,Lynx,,Graphite,Graphite,,,,,,,,ZWd95,,,,,,,,,,-16.6,29.43333,,,,,,,,Mashonaland West,USGS OFR2005-1294 (https://mrdata.usgs.gov/major-deposits/), ,ZWd095,,,,,,,,Metamorphic,3147.0,,,,,,,,,,,,,,,,,,,,,,,,,,,,,,,,,,,,,,,,,,POINT Z (29.433330000124727 -16.60000000019761 0),Lynx,,,
Africa,AFR_Mineral_Exploration,Mozambique,,6142L,,,Graphite,Graphite,,Exploration,,,, ,,MZx1,,,,,,,,,,-13.20998,38.67325,,,,,,,,Cabo Delgado,"USGS World Minerals Exploration Database (WMED), unpub.", ,, , , , , , , ,,,MZx001, ,P17259,2015.0, , ,,,,,,,,,,,,,,,,,,,,,,,,,,,,,,,,,,,,POINT Z (38.673249999926384 -13.209979999990026 0),6142L,Exploration,, 
Africa,AFR_Mineral_Exploration,Madagascar,,Antanisoa,,,Graphite,Graphite,,Exploration,,,, ,,MGx5,,,,,,,,,,-19.62,47.49,,,,,,,,Antananarivo,"USGS World Minerals Exploration Database (WMED), unpub.", ,, , , , , , , ,,,MGx005, ,P17255,2013.0, , ,,,,,,,,,,,,,,,,,,,,,,,,,,,,,,,,,,,,POINT Z (47.489999999988925 -19.619999999974993 0),Antanisoa,Exploration,, 
Africa,AFR_Mineral_Exploration,Madagascar,,Antsirabe,,,Graphite,Graphite,,Exploration,,,, ,,MGx6,,,,,,,,,,-18.52,48.597,,,,,,,,Toamasina,"USGS World Minerals Exploration Database (WMED), unpub.", ,, , , , , , , ,,,MGx006, ,P17256,2013.0, , ,,,,,,,,,,,,,,,,,,,,,,,,,,,,,,,,,,,,POINT Z (48.59699999984571 -18.51999999979961 0),Antsirabe,Exploration,, 
Africa,AFR_Mineral_Exploration,Mozambique,,Balama,,,Graphite,Graphite,,Feasibility Study,,,, ,,MZx2,,,,,,,,,,-13.1705,38.79699,,,,,,,,Cabo Delgado,"USGS World Minerals Exploration Database (WMED), unpub.",Nicanda West,,Vanadium, , , , , , ,,,MZx002, ,P17070,2018.0, , ,,,,,,,,,,,,,,,,,,,,,,,,,,,,,,,,,,,,POINT Z (38.79699000017945 -13.170500000167863 0),Balama,Feasibility Study,, 
Africa,AFR_Mineral_Exploration,Mozambique,,Balama Central,,,Vanadium,Vanadium,,Exploration,,,, ,,MZx3,,,,,,,,,,-13.38066,38.61478,,,,,,,,Cabo Delgado,"USGS World Minerals Exploration Database (WMED), unpub.", ,,Graphite, , , , , , ,,,MZx003, ,P17099,2018.0, , ,,,,,,,,,,,,,,,,,,,,,,,,,,,,,,,,,,,,POINT Z (38.61478000028751 -13.380660000008334 0),Balama Central,Exploration,, 
Africa,AFR_Mineral_Exploration,Madagascar,,Belanitra,,,Graphite,Graphite,,Exploration,,,, ,,MGx7,,,,,,,,,,-19.645,47.999,,,,,,,,Toamasina,"USGS World Minerals Exploration Database (WMED), unpub.", ,, , , , , , , ,,,MGx007, ,P17257,2013.0, , ,,,,,,,,,,,,,,,,,,,,,,,,,,,,,,,,,,,,POINT Z (47.998999999565626 -19.645000000122025 0),Belanitra,Exploration,, 
Africa,AFR_Mineral_Exploration,Namibia,,Black Range,,,Graphite,Graphite,,Exploration,,,, ,,NAx4,,,,,,,,,,-21.96773,15.24388,,,,,,,,Erongo,"USGS World Minerals Exploration Database (WMED), unpub.", ,, , , , , , , ,,,NAx004, ,P18219,2017.0, , ,,,,,,,,,,,,,,,,,,,,,,,,,,,,,,,,,,,,POINT Z (15.243879999939736 -21.967730000424865 0),Black Range,Exploration,, 
Africa,AFR_Mineral_Exploration,Tanzania,,Bunyu,,,Graphite,Graphite,,Feasibility Study,,,, ,,TZx6,,,,,,,,,,-10.29905,39.15626,,,,,,,,Lindi,"USGS World Minerals Exploration Database (WMED), unpub.",Namangale,, , , , , , , ,,,TZx006, ,P17066,2018.0, , ,,,,,,,,,,,,,,,,,,,,,,,,,,,,,,,,,,,,POINT Z (39.15626000000492 -10.299049999860415 0),Bunyu,Feasibility Study,, 
Africa,AFR_Mineral_Exploration,Tanzania,,Chilalo,,,Graphite,Graphite,,Feasibility Study,,,, ,,TZx8,,,,,,,,,,-9.95093,38.72631,,,,,,,,Lindi,"USGS World Minerals Exploration Database (WMED), unpub.", ,, , , , , , , ,,,TZx008,"Lindi, Tanzania; 48 km N of Nachingwea",P16721,2018.0, , ,,,,,,,,,,,,,,,,,,,,,,,,,,,,,,,,,,,,POINT Z (38.72630999985 -9.95092999984871 0),Chilalo,Feasibility Study,, 
Africa,AFR_Mineral_Exploration,Tanzania,,Chiliogali,,,Graphite,Graphite,,Exploration,,,, ,,TZx9,,,,,,,,,,-10.416,38.839,,,,,,,,Lindi,"USGS World Minerals Exploration Database (WMED), unpub.", ,, , , , , , , ,,,TZx009, ,P17262,2016.0, , ,,,,,,,,,,,,,,,,,,,,,,,,,,,,,,,,,,,,POINT Z (38.83899999964234 -10.415999999613064 0),Chiliogali,Exploration,, 
Africa,AFR_Mineral_Exploration,Malawi,,Chiziro,,,Graphite,Graphite,,Exploration,,,, ,,MWx3,,,,,,,,,,-13.71,34.099,,,,,,,,Dowa,"USGS World Minerals Exploration Database (WMED), unpub.", ,, , , , , , , ,,,MWx003,Malawi; 40 km NE of Lilongwe,P16146,2015.0, , ,,,,,,,,,,,,,,,,,,,,,,,,,,,,,,,,,,,,POINT Z (34.09899999963886 -13.710000000283685 0),Chiziro,Exploration,, 
Africa,AFR_Mineral_Exploration,Mozambique,,Dombeya,,,Graphite,Graphite,,Reserves Development,,,, ,,MZx6,,,,,,,,,,-13.44083,40.30976,,,,,,,,Cabo Delgado,"USGS World Minerals Exploration Database (WMED), unpub.",Lurio,, , , , , , , ,,,MZx006, ,P17103,2016.0, , ,,,,,,,,,,,,,,,,,,,,,,,,,,,,,,,,,,,,POINT Z (40.30976000031512 -13.440830000340725 0),Dombeya,Reserves Development,, 
Africa,AFR_Mineral_Exploration,Tanzania,,Epanko,,,Graphite,Graphite,,Feasibility Study,,,, ,,TZx12,,,,,,,,,,-8.585273,36.655357,,,,,,,,Morogoro,"USGS World Minerals Exploration Database (WMED), unpub.", ,, , , , , , , ,,,TZx012,Tanzania,P15205,2018.0, , ,,,,,,,,,,,,,,,,,,,,,,,,,,,,,,,,,,,,POINT Z (36.65535699997207 -8.585273000188465 0),Epanko,Feasibility Study,, 
Africa,AFR_Mineral_Exploration,Zimbabwe,,Globe,,,Graphite,Graphite,,Exploration,,,, ,,ZWx9,,,,,,,,,,-19.08525,27.10953,,,,,,,,Matabeleland North,"USGS World Minerals Exploration Database (WMED), unpub.", ,, , , , , , , ,,,ZWx009, ,P17269,2015.0, , ,,,,,,,,,,,,,,,,,,,,,,,,,,,,,,,,,,,,POINT Z (27.10952999987859 -19.08524999970723 0),Globe,Exploration,, 
Africa,AFR_Mineral_Exploration,Madagascar,,Gogogogo,,,Cobalt,Cobalt,,Inactive,,,, ,,MGx12,,,,,,,,,,-24.55915,44.88135,,,,,,,,Toliary,"USGS World Minerals Exploration Database (WMED), unpub.", ,,Copper,Nickel,Graphite, , , , ,,,MGx012, ,P11681,2016.0, , ,,,,,,,,,,,,,,,,,,,,,,,,,,,,,,,,,,,,POINT Z (44.88135000018411 -24.559150000358557 0),Gogogogo,Inactive,, 
Africa,AFR_Mineral_Exploration,Madagascar,,Green Giant,,,Vanadium,Vanadium,,Exploration,,,, ,,MGx13,,,,,,,,,,-23.991,45.039,,,,,,,,Toliary,"USGS World Minerals Exploration Database (WMED), unpub.", ,,Graphite, , , , , , ,,,MGx013,145 km SE of Toliara,P12413,2009.0, , ,,,,,,,,,,,,,,,,,,,,,,,,,,,,,,,,,,,,POINT Z (45.03900000014022 -23.991000000325982 0),Green Giant,Exploration,, 
Africa,AFR_Mineral_Exploration,Tanzania,,Injaa Hill,,,Graphite,Graphite,,Exploration,,,, ,,TZx23,,,,,,,,,,-10.36,38.94,,,,,,,,Lindi,"USGS World Minerals Exploration Database (WMED), unpub.", ,, , , , , , , ,,,TZx023, ,P17263,2014.0, , ,,,,,,,,,,,,,,,,,,,,,,,,,,,,,,,,,,,,POINT Z (38.940000000056614 -10.360000000362845 0),Injaa Hill,Exploration,, 
Africa,AFR_Mineral_Exploration,Uganda,,Kitgum,,,Graphite,Graphite,,Exploration,,,, ,,UGx5,,,,,,,,,,3.39,33.61,,,,,,,,Kitgum,"USGS World Minerals Exploration Database (WMED), unpub.", ,, , , , , , , ,,,UGx005, ,P17268,2015.0, , ,,,,,,,,,,,,,,,,,,,,,,,,,,,,,,,,,,,,POINT Z (33.61000000017981 3.38999999958088 0),Kitgum,Exploration,, 
Africa,AFR_Mineral_Exploration,Tanzania,,Lindi Jumbo,,,Graphite,Graphite,,Feasibility Study,,,, ,,TZx35,,,,,,,,,,-9.91712,38.9065,,,,,,,,Lindi,"USGS World Minerals Exploration Database (WMED), unpub.", ,,Vanadium, , , , , , ,,,TZx035,"Lindi, Tanzania; 75 km W of Lindi",P16755,2017.0, , ,,,,,,,,,,,,,,,,,,,,,,,,,,,,,,,,,,,,POINT Z (38.90650000003944 -9.917120000398029 0),Lindi Jumbo,Feasibility Study,, 
Africa,AFR_Mineral_Exploration,Madagascar,,Madagascar,,,Graphite,Graphite,,Exploration,,,, ,,MGx15,,,,,,,,,,-18.883333,48.416667,,,,,,,,Toamasina,"USGS World Minerals Exploration Database (WMED), unpub.",Malagasy,, , , , , , , ,,,MGx015, ,P14069,2009.0, , ,,,,,,,,,,,,,,,,,,,,,,,,,,,,,,,,,,,,POINT Z (48.41666700005982 -18.883333000122434 0),Madagascar,Exploration,, 
Africa,AFR_Mineral_Exploration,Madagascar,,Madagascar,,,Graphite,Graphite,,Exploration,,,, ,,MGx16,,,,,,,,,,-18.56,49.16,,,,,,,,Toamasina,"USGS World Minerals Exploration Database (WMED), unpub.", ,, , , , , , , ,,,MGx016, ,P17258,2013.0, , ,,,,,,,,,,,,,,,,,,,,,,,,,,,,,,,,,,,,POINT Z (49.15999999991993 -18.560000000034904 0),Madagascar,Exploration,, 
Africa,AFR_Mineral_Exploration,Tanzania,,Mahenge Liandu,,,Graphite,Graphite,,Feasibility Study,,,, ,,TZx44,,,,,,,,,,-8.73571,36.73159,,,,,,,,Morogoro,"USGS World Minerals Exploration Database (WMED), unpub.", ,, , , , , , , ,,,TZx044, ,P17094,2018.0, , ,,,,,,,,,,,,,,,,,,,,,,,,,,,,,,,,,,,,POINT Z (36.73158999961328 -8.73571000024026 0),Mahenge Liandu,Feasibility Study,, 
Africa,AFR_Mineral_Exploration,Tanzania,,Mahenge North,,,Graphite,Graphite,,Feasibility Study,,,, ,,TZx45,,,,,,,,,,-8.85294,36.72278,,,,,,,,Morogoro,"USGS World Minerals Exploration Database (WMED), unpub.", ,, , , , , , , ,,,TZx045,"Morogoro, Tanzania; 15 km SE of Mahenge",P16900,2016.0, , ,,,,,,,,,,,,,,,,,,,,,,,,,,,,,,,,,,,,POINT Z (36.72278000030968 -8.852939999800299 0),Mahenge North,Feasibility Study,, 
Africa,AFR_Mineral_Exploration,Tanzania,,Mahenge South,,,Graphite,Graphite,,Exploration,,,, ,,TZx46,,,,,,,,,,-9.047,36.72,,,,,,,,Morogoro,"USGS World Minerals Exploration Database (WMED), unpub.", ,, , , , , , , ,,,TZx046, ,P17264,2014.0, , ,,,,,,,,,,,,,,,,,,,,,,,,,,,,,,,,,,,,POINT Z (36.719999999588254 -9.04700000037343 0),Mahenge South,Exploration,, 
Africa,AFR_Mineral_Exploration,Tanzania,,Makonde,,,Graphite,Graphite,,Exploration,,,, ,,TZx47,,,,,,,,,,-8.77,36.73,,,,,,,,Morogoro,"USGS World Minerals Exploration Database (WMED), unpub.", ,, , , , , , , ,,,TZx047, ,P17265,2015.0, , ,,,,,,,,,,,,,,,,,,,,,,,,,,,,,,,,,,,,POINT Z (36.72999999964708 -8.770000000003051 0),Makonde,Exploration,, 
Africa,AFR_Mineral_Exploration,Malawi,,Malingunde,,,Graphite,Graphite,,Exploration,,,, ,,MWx9,,,,,,,,,,-14.31259,33.93294,,,,,,,,Dedza,"USGS World Minerals Exploration Database (WMED), unpub.", ,,Rutile,Ilmenite,Zircon, , , , ,,,MWx009,Lilongwe; 17km E of Malawi,P16074,2015.0, , ,,,,,,,,,,,,,,,,,,,,,,,,,,,,,,,,,,,,POINT Z (33.93293999959013 -14.312590000008072 0),Malingunde,Exploration,, 
Africa,AFR_Mineral_Exploration,Madagascar,,Maniry,,,Graphite,Graphite,,Exploration,,,, ,,MGx17,,,,,,,,,,-24.52345,44.85585,,,,,,,,Toliary,"USGS World Minerals Exploration Database (WMED), unpub.", ,, , , , , , , ,,,MGx017,"Toliara, Madagascar; 20.3 km NE of Ampanihy; 680 km SSW of Antanananarivo",P16132,2018.0, , ,,,,,,,,,,,,,,,,,,,,,,,,,,,,,,,,,,,,POINT Z (44.855849999674376 -24.52345000018454 0),Maniry,Exploration,, 
Africa,AFR_Mineral_Exploration,Tanzania,,Merelani-Arusha,,,Graphite,Graphite,,Exploration,,,, ,,TZx53,,,,,,,,,,-3.588,37.238,,,,,,,,Manyara,"USGS World Minerals Exploration Database (WMED), unpub.", ,, , , , , , , ,,,TZx053,"Arusha, Tanzania; 20 km SSW of Moshi",P15753,2015.0, , ,,,,,,,,,,,,,,,,,,,,,,,,,,,,,,,,,,,,POINT Z (37.23800000029706 -3.587999999557951 0),Merelani-Arusha,Exploration,, 
Africa,AFR_Mineral_Exploration,Madagascar,,Molo,,,Graphite,Graphite,,Feasibility Study,,,, ,,MGx19,,,,,,,,,,-23.99893,45.13187,,,,,,,,Toliary,"USGS World Minerals Exploration Database (WMED), unpub.", ,, , , , , , , ,,,MGx019,"Toliara, Madagascar; 165 km ESE of Toliara",P15365,2015.0, , ,,,,,,,,,,,,,,,,,,,,,,,,,,,,,,,,,,,,POINT Z (45.1318700002692 -23.99893000010644 0),Molo,Feasibility Study,, 
Africa,AFR_Mineral_Exploration,Mozambique,,Montepuez central,,,Graphite,Graphite,,Pre-Production,,,, ,,MZx16,,,,,,,,,,-12.8042,38.71666,,,,,,,,Cabo Delgado,"USGS World Minerals Exploration Database (WMED), unpub.", ,,Vanadium,Copper,Gold,Zinc,Lead, , ,,,MZx016,Mozambique; NE in the Cabo Delgado province,P16669,2015.0, , ,,,,,,,,,,,,,,,,,,,,,,,,,,,,,,,,,,,,POINT Z (38.71666000022492 -12.804200000135552 0),Montepuez central,Pre-Production,, 
Africa,AFR_Mineral_Exploration,Ethiopia,,Moyale,,,Graphite,Graphite,,Exploration,,,, ,,ETx8,,,,,,,,,,3.53882,39.00736,,,,,,,,Oromia,"USGS World Minerals Exploration Database (WMED), unpub.", ,, , , , , , , ,,,ETx008, ,P16636,2014.0, , ,,,,,,,,,,,,,,,,,,,,,,,,,,,,,,,,,,,,POINT Z (39.007360000100334 3.5388200001828523 0),Moyale,Exploration,, 
Africa,AFR_Mineral_Exploration,Mozambique,,Mozambique,,,Graphite,Graphite,,Exploration,,,, ,,MZx18,,,,,,,,,,-13.376,40.29747,,,,,,,,Cabo Delgado,"USGS World Minerals Exploration Database (WMED), unpub.", ,, , , , , , , ,,,MZx018, ,P17261,2014.0, , ,,,,,,,,,,,,,,,,,,,,,,,,,,,,,,,,,,,,POINT Z (40.297470000321994 -13.37599999993779 0),Mozambique,Exploration,, 
Africa,AFR_Mineral_Exploration,Tanzania,,Nachingwea,,,Copper,Copper,,Exploration,,,,Goldstream Mining NL,,TZx66,,,,,,,,,,-9.82816,38.46323,,,,,,,,Lindi,"USGS World Minerals Exploration Database (WMED), unpub.", ,,Nickel,Platinum-group elements (PGE),Gold,Graphite, , , ,,,TZx066, ,P09819,2005.0, , ,,,,,,,,,,,,,,,,,,,,,,,,,,,,,,,,,,,,POINT Z (38.463230000439296 -9.828159999795616 0),Nachingwea,Exploration,,Goldstream Mining NL
Africa,AFR_Mineral_Exploration,Tanzania,,Nachingwea,,,Graphite,Graphite,,Exploration,,,, ,,TZx67,,,,,,,,,,-10.35549,38.94003,,,,,,,,Lindi,"USGS World Minerals Exploration Database (WMED), unpub.", ,, , , , , , , ,,,TZx067, ,P17266,2015.0, , ,,,,,,,,,,,,,,,,,,,,,,,,,,,,,,,,,,,,POINT Z (38.94002999968268 -10.35549000022121 0),Nachingwea,Exploration,, 
Africa,AFR_Mineral_Exploration,Tanzania,,Nachu,,,Graphite,Graphite,,Pre-Production,,,, ,,TZx68,,,,,,,,,,-9.90747,38.868,,,,,,,,Lindi,"USGS World Minerals Exploration Database (WMED), unpub.", ,,Gold, , , , , , ,,,TZx068,"Lindi, Tanzania; 85 km W of Lindi",P15514,2016.0, , ,,,,,,,,,,,,,,,,,,,,,,,,,,,,,,,,,,,,POINT Z (38.86799999999283 -9.907469999873626 0),Nachu,Pre-Production,, 
Africa,AFR_Mineral_Exploration,Tanzania,,Ruangwa,,,Graphite,Graphite,,Exploration,,,, ,,TZx77,,,,,,,,,,-9.79756,39.14175,,,,,,,,Lindi,"USGS World Minerals Exploration Database (WMED), unpub.", ,, , , , , , , ,,,TZx077, ,P17267,2014.0, , ,,,,,,,,,,,,,,,,,,,,,,,,,,,,,,,,,,,,POINT Z (39.14174999980446 -9.797559999903399 0),Ruangwa,Exploration,, 
Africa,AFR_Mineral_Exploration,Madagascar,,Toamasina,,,Graphite,Graphite,,Reserves Development,,,, ,,MGx22,,,,,,,,,,-18.52065,49.11102,,,,,,,,Toamasina,"USGS World Minerals Exploration Database (WMED), unpub.",Vohitsara,, , , , , , , ,,,MGx022,5 km inland from Toamasina,P14067,2012.0, , ,,,,,,,,,,,,,,,,,,,,,,,,,,,,,,,,,,,,POINT Z (49.11102000040165 -18.520650000091223 0),Toamasina,Reserves Development,, 
Africa,AFR_Mineral_Exploration,Madagascar,,Vatomaina,,,Graphite,Graphite,,Reserves Development,,,, ,,MGx24,,,,,,,,,,-18.57571,49.11425,,,,,,,,Toamasina,"USGS World Minerals Exploration Database (WMED), unpub.", ,, , , , , , , ,,,MGx024, ,P17113,2016.0, , ,,,,,,,,,,,,,,,,,,,,,,,,,,,,,,,,,,,,POINT Z (49.11425000001054 -18.575709999666856 0),Vatomaina,Reserves Development,, 
Africa,AFR_Mineral_Exploration,Chad,,Waya Waya,,,Graphite,Graphite,,Exploration,,,, ,,TDx2,,,,,,,,,,14.85435,21.78082,,,,,,,,Wadi Fira,"USGS World Minerals Exploration Database (WMED), unpub.", ,, , , , , , , ,,,TDx002, ,P17253,2015.0, , ,,,,,,,,,,,,,,,,,,,,,,,,,,,,,,,,,,,,POINT Z (21.78082000011011 14.854350000180887 0),Waya Waya,Exploration,, 
Africa,AFR_Mineral_Exploration,Ethiopia,,Western Ethiopia,,,Graphite,Graphite,,Exploration,,,, ,,ETx13,,,,,,,,,,7.96688,34.52691,,,,,,,,Gambela Peoples,"USGS World Minerals Exploration Database (WMED), unpub.", ,, , , , , , , ,,,ETx013, ,P17254,2013.0, , ,,,,,,,,,,,,,,,,,,,,,,,,,,,,,,,,,,,,POINT Z (34.5269100000408 7.966879999761545 0),Western Ethiopia,Exploration,, 
Africa,AFR_Mineral_Exploration,Zimbabwe,,Zimbabwe German,,,Graphite,Graphite,,Exploration,,,, ,,ZWx28,,,,,,,,,,-16.59507,29.45208,,,,,,,,Mashonaland West,"USGS World Minerals Exploration Database (WMED), unpub.", ,, , , , , , , ,,,ZWx028, ,P17270,2012.0, , ,,,,,,,,,,,,,,,,,,,,,,,,,,,,,,,,,,,,POINT Z (29.452079999844784 -16.595069999894235 0),Zimbabwe German,Exploration,, 
China,CHN_Mineral_Facilities,China,Liumao Mine,,,,Graphite,,,,80000.0,mt,Jixi Puchen Graphite Co. Ltd.,,CHN0500,CHN500,,,N,N,,,,,,45.08,130.78,,Google Earth,"USGS 2019 Minerals Yearbook, Vol. III, China Country Chapter, Table 2; various other USGS, industry, geologic research, and company reports; various mining databases","Jixi Liumao Graphite Resources Co., Ltd.",,,,Heilongjiang,,,,,,,,,,,,,,"Heilongjiang, Jixi",,,,,Mines and Quarries,,Assumed Active,A,,,,,,,,,,,,,,,,,,,,,,,,,,,,,,,,POINT (130.7800000000001 45.08000000000004),Liumao Mine,Assumed Active,2023.0,"Jixi Liumao Graphite Resources Co., Ltd."
China,CHN_Mineral_Facilities,China,Mine in Jixi,,,,Graphite,,,,100000.0,mt,Jixi Aoyu Graphite Co. Ltd.,,CHN0501,CHN501,,,N,N,,,,,,45.62,132.46,,Google Earth,"USGS 2019 Minerals Yearbook, Vol. III, China Country Chapter, Table 2; various other USGS, industry, geologic research, and company reports; various mining databases","Jixi Aoyu Graphite Co., Ltd.",,,,Heilongjiang,,,,,,,,,,,,,,"Heilongjiang, Jixi",,,,,Mines and Quarries,,Assumed Active,A,,,,,,,,,,,,,,,,,,,,,,,,,,,,,,,,POINT (132.46000000000004 45.62000000000006),Mine in Jixi,Assumed Active,2023.0,"Jixi Aoyu Graphite Co., Ltd."
China,CHN_Mineral_Facilities,China,Mine in Xinghe,,,,Graphite,,,,10000.0,mt,Nei Mongol Xinghe Jingyin Graphite Co. Ltd.,,CHN1095,CHN1095,,,N,N,,,,,,40.87,113.87,,Google Earth,"USGS 2019 Minerals Yearbook, Vol. III, China Country Chapter, Table 2; various other USGS, industry, geologic research, and company reports; various mining databases","Nei Mongol Xinghe Jingxin Graphite Co., Ltd.",,,,Nei Mongol,,,,,,,,,,,,,,"Nei Mongol, Xinghe",,,,,Mines and Quarries,,Assumed Active,A,,,,,,,,,,,,,,,,,,,,,,,,,,,,,,,,POINT (113.87 40.87000000000006),Mine in Xinghe,Assumed Active,2023.0,"Nei Mongol Xinghe Jingxin Graphite Co., Ltd."
China,CHN_Mineral_Facilities,China,Plant in Qingdao,,,,Graphite,,,,30000.0,mt,Hensen Graphite Co. Ltd.,,CHN1434,CHN1434,,,N,N,,,,,,36.8,120.51,,Google Earth,"USGS 2019 Minerals Yearbook, Vol. III, China Country Chapter, Table 2; various other USGS, industry, geologic research, and company reports; various mining databases","Qingdao Hensen Graphite Co., Ltd",,,,Shandong,,,,,,,,,,,,,,"Shandong, Qingdao",,,,,Mineral Processing Plants,,Assumed Active,A,,,,,,,,,,,,,,,,,,,,,,,,,,,,,,,,POINT (120.5100000000001 36.80000000000007),Plant in Qingdao,Assumed Active,2023.0,"Qingdao Hensen Graphite Co., Ltd"
China,CHN_Mineral_Facilities,China,Qingdao Mine,,,,Graphite,,,,28000.0,mt,Qingdao Yanxin Graphite Products Co. Ltd.,,CHN1467,CHN1467,,,N,N,,,,,,36.7327,119.9238,,Google Earth,"USGS 2019 Minerals Yearbook, Vol. III, China Country Chapter, Table 2; various other USGS, industry, geologic research, and company reports; various mining databases",AMG Advanced Metallurgical Group [100%],,,,Shandong,,,,,,,,,,,,,,"Shandong, Qingdao",,,,,Mines and Quarries,,Assumed Active,E,,,,,,,,,,,,,,,,,,,,,,,,,,,,,,,,POINT (119.92380000000003 36.73270000000008),Qingdao Mine,Assumed Active,2023.0,AMG Advanced Metallurgical Group [100%]
China,CHN_Mineral_Deposits,China,,,Liumao,,Graphite,Graphite,,,,,,,,CHNd24,,,,,,,,,,45.0856,130.7846,,,,,,,,Heilongjiang,USGS OFR2005-1294 (https://mrdata.usgs.gov/major-deposits/),,CHNd024,,,,,,,,Metamorphic,,,,,,,,,,,,,,,,,,,,,,,,,,,,,,,,,,,,,,,,,,,POINT (130.78469999990511 45.08560000043974),Liumao,,,
China,CHN_Mineral_Deposits,China,,,Yunshan,,Graphite,Graphite,,,,,,,,CHNd25,,,,,,,,,,45.9167,132.4833,,,,,,,,Heilongjiang,USGS OFR2005-1294 (https://mrdata.usgs.gov/major-deposits/),,CHNd025,,,,,,,,Sedimentary,,,,,,,,,,,,,,,,,,,,,,,,,,,,,,,,,,,,,,,,,,,POINT (132.4833000002949 45.916700000404774),Yunshan,,,
China,CHN_Mineral_Deposits,China,,,Heling,,Graphite,Graphite,,,,,,,,CHNd210,,,,,,,,,,46.3145,129.55,,,,,,,,Heilongjiang,USGS PP1802 and accompanying USGS Data Release (https://mrdata.usgs.gov/pp1802/),,CHNd210,,,,,,,,Amorphous Graphite,,,,,,,,,,,,,,,,,,,,,,,,,,,,,,,,,,,,,,,,,,,POINT (129.55000000019993 46.31453000025937),Heling,,,
China,CHN_Mineral_Deposits,China,,,Jixi (Liu Mao),,Graphite,Graphite,,,,,,,,CHNd211,,,,,,,,,,45.2811,131.0,,,,,,,,Heilongjiang,USGS PP1802 and accompanying USGS Data Release (https://mrdata.usgs.gov/pp1802/),,CHNd211,,,,,,,,Amorphous Graphite,,,,,,,,,,,,,,,,,,,,,,,,,,,,,,,,,,,,,,,,,,,POINT (131.0000000000001 45.28118999991864),Jixi (Liu Mao),,,
China,CHN_Mineral_Deposits,China,,,Liu Mao,,Graphite,Graphite,,,,,,,,CHNd212,,,,,,,,,,45.2978,131.0666,,,,,,,,Heilongjiang,USGS PP1802 and accompanying USGS Data Release (https://mrdata.usgs.gov/pp1802/),,CHNd212,,,,,,,,Amorphous Graphite,,,,,,,,,,,,,,,,,,,,,,,,,,,,,,,,,,,,,,,,,,,POINT (131.06666999972083 45.29785999973927),Liu Mao,,,
China,CHN_Mineral_Deposits,China,,,Honan Deposits,,Graphite,Graphite,,,,,,,,CHNd213,,,,,,,,,,32.4986,113.8826,,,,,,,,Henan,USGS PP1802 and accompanying USGS Data Release (https://mrdata.usgs.gov/pp1802/),,CHNd213,,,,,,,,Amorphous Graphite,,,,,,,,,,,,,,,,,,,,,,,,,,,,,,,,,,,,,,,,,,,POINT (113.88269000034325 32.49866999972079),Honan Deposits,,,
China,CHN_Mineral_Deposits,China,,,Hunan,,Graphite,Graphite,,,,,,,,CHNd214,,,,,,,,,,25.9991,112.9994,,,,,,,,Hunan,USGS PP1802 and accompanying USGS Data Release (https://mrdata.usgs.gov/pp1802/),,CHNd214,,,,,,,,Amorphous Graphite,,,,,,,,,,,,,,,,,,,,,,,,,,,,,,,,,,,,,,,,,,,POINT (112.99946000027887 25.999149999772726),Hunan,,,
China,CHN_Mineral_Deposits,China,,,Panshi,,Graphite,Graphite,,,,,,,,CHNd215,,,,,,,,,,42.9311,125.9666,,,,,,,,Jilin,USGS PP1802 and accompanying USGS Data Release (https://mrdata.usgs.gov/pp1802/),,CHNd215,,,,,,,,Amorphous Graphite,,,,,,,,,,,,,,,,,,,,,,,,,,,,,,,,,,,,,,,,,,,POINT (125.9666700000206 42.93119000011848),Panshi,,,
China,CHN_Mineral_Deposits,China,,,Hohot,,Graphite,Graphite,,,,,,,,CHNd216,,,,,,,,,,40.8148,111.616,,,,,,,,Nei Mongol,USGS PP1802 and accompanying USGS Data Release (https://mrdata.usgs.gov/pp1802/),,CHNd216,,,,,,,,Crystalline Graphite,,,,,,,,,,,,,,,,,,,,,,,,,,,,,,,,,,,,,,,,,,,POINT (111.61609000015346 40.81488999997356),Hohot,,,
China,CHN_Mineral_Deposits,China,,,Shandong Peninsula,,Graphite,Graphite,,,,,,,,CHNd217,,,,,,,,,,37.0317,120.3158,,,,,,,,Shandong,USGS PP1802 and accompanying USGS Data Release (https://mrdata.usgs.gov/pp1802/),,CHNd217,,,,,,,,Crystalline Graphite,,,,,,,,,,,,,,,,,,,,,,,,,,,,,,,,,,,,,,,,,,,POINT (120.31586999960086 37.03174000040076),Shandong Peninsula,,,
China,CHN_Mineral_Deposits,China,,,Xing He,,Graphite,Graphite,,,,,,,,CHNd218,,,,,,,,,,40.8833,113.8833,,,,,,,,Nei Mongol,USGS PP1802 and accompanying USGS Data Release (https://mrdata.usgs.gov/pp1802/),,CHNd218,,,,,,,,Crystalline Graphite,,,,,,,,,,,,,,,,,,,,,,,,,,,,,,,,,,,,,,,,,,,POINT (113.88333300031775 40.88333299961829),Xing He,,,
China,CHN_Mineral_Exploration,China,,Qitaihe,,,Graphite,Graphite,,Exploration,,,,"Baotailong New Materials Co., Ltd.",,,,,,,,,,,"Heilongjiang, Qitaihe, Boli County",45.84,131.11,,,,,,,,Heilongjiang,,,,,,,,,,,,,CHNx184,about 9 km N of Qitaihe,,,,,,,,A,,Milin Graphite Mine,Heilongjiang,2022.0,http://www.sse.com.cn/disclosure/listedinfo/announcement/c/new/2022-04-26/601011_20220426_2_2LwtG3z0.pdf,Google Maps,http://www.sse.com.cn/disclosure/listedinfo/announcement/c/new/2022-04-26/601011_20220426_2_2LwtG3z0.pdf,,http://www.sse.com.cn/disclosure/listedinfo/announcement/c/new/2022-04-26/601011_20220426_2_2LwtG3z0.pdf,http://www.btlgf.com/,http://www.sse.com.cn/disclosure/listedinfo/announcement/c/new/2022-04-26/601011_20220426_2_2LwtG3z0.pdf,,,,,,,,,,,,,,,,,,,,,POINT (131.11 45.84000000000003),Qitaihe,Exploration,2022.0,"Baotailong New Materials Co., Ltd."
China,CHN_Mineral_Exploration,China,,Jiucaigou,,,Graphite,Graphite,,Exploration,,,,,,,,,,,,,,,"Henan, Nanyang, Neixang County",33.3599999999999,111.75,,,,,,,,Henan,,,,,,,,,,,,,CHNx185,about 4 km W of Xiaguanzhen,,,,,,,,A,,,Henan,2020.0,https://news.metal.com/newscontent/101178970/2019-[concern]-national-mineral-exploration:-so-many-metal-deposits-have-been-newly-discovered/,Google Maps,https://news.metal.com/newscontent/101178970/2019-[concern]-national-mineral-exploration:-so-many-metal-deposits-have-been-newly-discovered/,,,,https://news.metal.com/newscontent/101178970/2019-[concern]-national-mineral-exploration:-so-many-metal-deposits-have-been-newly-discovered/,,,,,,,,,,,,,,,,,,,,,POINT (111.75000000000006 33.36000000000007),Jiucaigou,Exploration,2020.0,
China,CHN_Mineral_Exploration,China,,Shizhai,,,Graphite,Graphite,,Exploration,,,,,,,,,,,,,,,"Henan, Nanyang, Xixia County",33.5099999999999,111.379999999999,,,,,,,,Henan,,,,,,,,,,,,,CHNx186,about 9 km W of Dahegangcun,,,,,,,,A,,,Henan,2020.0,https://news.metal.com/newscontent/101178970/2019-[concern]-national-mineral-exploration:-so-many-metal-deposits-have-been-newly-discovered/,Google Maps,https://news.metal.com/newscontent/101178970/2019-[concern]-national-mineral-exploration:-so-many-metal-deposits-have-been-newly-discovered/,,,,https://news.metal.com/newscontent/101178970/2019-[concern]-national-mineral-exploration:-so-many-metal-deposits-have-been-newly-discovered/,,,,,,,,,,,,,,,,,,,,,POINT (111.38000000000005 33.51000000000005),Shizhai,Exploration,2020.0,
China,CHN_Mineral_Exploration,China,,Huogeqi,,,Graphite,Graphite,,Exploration,,,,,,,,,,,,,,,"Nei Mongol, Bayannur, Urad Rear Banner",41.2899999999999,106.64,,,,,,,,Nei Mongol,,,,,,,,,,,,,CHNx187,about 43 km NW of Urad Rear Banner,,,,,,,,A,,,Nei Mongol,2020.0,https://www.mnr.gov.cn/sj/sjfw/kc_19263/zgkczybg/202010/P020201022612392451059.pdf,Google Maps,https://www.mnr.gov.cn/sj/sjfw/kc_19263/zgkczybg/202010/P020201022612392451059.pdf,,,,https://www.mnr.gov.cn/sj/sjfw/kc_19263/zgkczybg/202010/P020201022612392451059.pdf,,,,,,,,,,,,,,,,,,,,,POINT (106.64000000000004 41.29000000000008),Huogeqi,Exploration,2020.0,
China,CHN_Mineral_Exploration,China,,Bayannur Graphite Project,,,Graphite,Graphite,,Pre-production,,,,Inner Mongolia Rising Energy Group [100%],,,,,,,,,,,"Nei Mongol, Bayannur, Linhe District",40.7199999999999,107.39,,,,,,,,Nei Mongol,,,,,,,,,,,,,CHNx188,about 3 km SE of the city of Bayannur,,,,,,,,A,,,Nei Mongol,2020.0,https://www.linkedin.com/pulse/graphite-construction-begins-new-ultra-large-flake-mine-sue-shaw,Google Maps,https://www.linkedin.com/pulse/graphite-construction-begins-new-ultra-large-flake-mine-sue-shaw,https://www.miningmagazine.com/exploration/news/1388718/inner-mongolia-graphite-project-gets-underway,https://www.linkedin.com/pulse/graphite-construction-begins-new-ultra-large-flake-mine-sue-shaw,https://www.mining.com/inner-mongolia-new-graphite-mine-may-help-china-fill-gap-from-lower-imports-report/,https://www.mining.com/inner-mongolia-new-graphite-mine-may-help-china-fill-gap-from-lower-imports-report/,https://www.linkedin.com/pulse/graphite-construction-begins-new-ultra-large-flake-mine-sue-shaw,,,,,,,,,,,,,,,,,,,,POINT (107.39000000000004 40.72000000000003),Bayannur Graphite Project,Pre-production,2020.0,Inner Mongolia Rising Energy Group [100%]
China,CHN_Mineral_Exploration,China,,Yunshan,,,Graphite,Graphite,,Pre-production,,,,"China Minmetals Group Heilongjiang Graphite Industry Co., Ltd. (China Minmetals Corp.)",,,,,,,,,,,"Heilongjiang, Hegang, Luobei County",47.8288,130.6416,,,,,,,,Heilongjiang,,,,,,,,,,,,,CHNx189,about 30 km NW of Luobei county,,,,,,,,E,,Hegang,Heilongjiang,2020.0,http://en.people.cn/n3/2016/1122/c90000-9145277.html,,https://www.argusmedia.com/en/news/2121249-china-minmetals-develops-heilongjiang-graphite-mine,,https://www.argusmedia.com/en/news/2121249-china-minmetals-develops-heilongjiang-graphite-mine,,http://en.people.cn/n3/2016/1122/c90000-9145277.html,https://www.argusmedia.com/en/news/2121249-china-minmetals-develops-heilongjiang-graphite-mine,,,,,,,,,,,,,,,,,,,,POINT (130.64160000000004 47.82880000000006),Yunshan,Pre-production,2020.0,"China Minmetals Group Heilongjiang Graphite Industry Co., Ltd. (China Minmetals Corp.)"
Indopacific,INDOPAC_Mineral_Facilities,Malaysia,Plant in Kawasan Perindustrian,,,,Graphite,,Assumed Active,,-999.0,,Resonac Graphite Malaysia Sdn. Bhd.,,MYS284,MYS284,,Synthetic Graphite,N,N,,,,,"Kawasan Perindustrian, Banting, Selangor",2.8359,101.5543,E,,,Resonac Graphite Malaysia Sdn. Bhd.,,,,Selangor,,,,,,,,,,,,,,,,,,,Mineral Processing Plants,Carbon electrodes,,,,,,,"https://www.google.com/maps/place/Showa+Denko+Carbon+Malaysia+Sdn+Bhd/@2.8365099,101.5524718,367m/data=!3m1!1e3!4m5!3m4!1s0x31cda4a2c8f229f9:0xda5afb7ed7486156!8m2!3d2.8339534!4d101.5533615",https://www.bluesnowenergy.com/project/showa-denko-carbon-malaysia/,,,https://www.graphite.resonac.com/,https://www.showadenkocarbon.com/sites/banting-malaysia/,,,,,,,,,,,,,,,,,,,,,,POINT (101.55430000000007 2.835900000000038),Plant in Kawasan Perindustrian,Assumed Active,,Resonac Graphite Malaysia Sdn. Bhd.
Indopacific,INDOPAC_Mineral_Facilities,Sri Lanka,Kahatagaha Mine,,,,Graphite,,Assumed Active,,780.0,mt,Kahatagaha Graphite Lanka Ltd. ,,LKA011,LKA11,,,N,N,,E,,,"Kurunegala District, North Western",7.5743,80.5477,E,,,Ministry of Industry and Commerce [100%],,,,North Western,,,,,,,,,,,,,,,,,,,Mines and Quarries,,,,,,,,"https://www.google.com/maps/place/Kahatagaha+Mine,+Mineral+Laboratory/@7.5739359,80.5476671,644m/data=!3m2!1e3!4b1!4m5!3m4!1s0x3ae34eb5f3c1fde9:0x97e07fe3873d3cdd!8m2!3d7.5738813!4d80.5483065",https://kgraphite.lk/gallery/,,,https://kgraphite.lk/wp-content/uploads/2020/10/Company-Profile-KGLL.pdf,,,,,,https://www.cbsl.gov.lk/sites/default/files/cbslweb_documents/publications/annual_report/2022/en/15_Appendix.pdf,,,,,,,,,,,,,,,,,POINT (80.54770000000008 7.574300000000051),Kahatagaha Mine,Assumed Active,,Ministry of Industry and Commerce [100%]
Indopacific,INDOPAC_Mineral_Facilities,Sri Lanka,Ragedara Mine,,,,Graphite,,Assumed Active,,500.0,mt,Sakura Graphite (Pvt.) Ltd.,,LKA017,LKA17,,,N,N,,E,,,"Melsiripura, Kurunegala District, North Western",7.6344,80.5388,E,,,KWA Holdings [60%],Elcora Advanced Materials Corp. [40%],,,North Western,,,,,,,,,,,,,,,,,,,Mines and Quarries,,,,,,,,"https://www.google.com/maps/place/Ragedara+Mine+Ceylon+(Pvt)+Ltd/@7.6345207,80.5384933,362m/data=!3m1!1e3!4m5!3m4!1s0x3ae34b5c90fb1e45:0xe28cc0874415f272!8m2!3d7.6343581!4d80.5388188",https://ragedaramines.com/#,,,https://www.elcoracorp.com/mining-ragedara-graphite-mine/,,,,,,https://www.elcoracorp.com/mining-ragedara-graphite-mine/,,,,,,,,,,,,,,,,,POINT (80.53880000000004 7.634400000000028),Ragedara Mine,Assumed Active,,KWA Holdings [60%]
Indopacific,INDOPAC_Mineral_Facilities,Sri Lanka,Bogala Mine,,,,Graphite,,Assumed Active,,7000.0,mt,Bogala Graphite Lanka Plc. ,,LKA018,LKA18,,,N,N,,E,,,"Kegalle District, Sabaragamuwa",7.1163,80.3095,E,,,Graphit Kropfmuhl GmbH (AMG Graphite) [79.6%],Alterna GK LLC [10.3%] ,,,Sabaragamuwa,,,,,,,,,,,,,,,,,,,Mines and Quarries,,,,,,,,https://www.gk-graphite.lk/index.php?id=430,,,,https://www.gk-graphite.lk/index.php?id=473,,,,,,https://www.company-list.org/bogala_graphite_lanka_limited.html,,,,,,,,,,,,,,,,,POINT (80.30950000000007 7.116300000000024),Bogala Mine,Assumed Active,,Graphit Kropfmuhl GmbH (AMG Graphite) [79.6%]
Indopacific,INDOPAC_Mineral_Facilities,Vietnam,Nam Thi Mine,,,,Graphite,,Assumed Active,,-999.0,,Song Da Lao Cai Mining JSC,,VNM097,VNM97,,,N,N,,,,,"Bao Yen, Lao Cai ",22.22,104.38,A,,,Song Da Lao Cai Mining JSC,,,,Lao Cai,,,,,,,,,,,,,,,,,,,Mines and Quarries,,,,,,,,http://vjs.ac.vn/index.php/jse/article/viewFile/10728/pdf,https://www.google.com/maps/,,,https://vjs.ac.vn/index.php/jse/article/view/10728,https://pubs.usgs.gov/myb/vol3/2017-18/myb3-2017-18-vietnam.pdf,,,,,https://pubs.usgs.gov/myb/vol3/2017-18/myb3-2017-18-vietnam.pdf,,,,,,,,,,,,,,,,,POINT (104.38000000000005 22.220000000000027),Nam Thi Mine,Assumed Active,,Song Da Lao Cai Mining JSC
Indopacific,INDOPAC_Mineral_Facilities,Vietnam,Graphite Purification Plant,,,,Graphite,,Assumed Active,,70000.0,mt,Vietnam Graphite Group,,VNM199,VNM199,,,N,N,,E,,,"Tran Yen, Yen Bai ",21.834,104.7585,E,,,Urbix Resources,,,,Yen Bai,,,,,,,,,,,,,,,,,,,Mineral Processing Plants,,,,,,,,http://vietnamgraphite.com/,"https://www.google.com/maps/place/C%C3%B4ng+Ty+TNHH+Ng%E1%BB%8Dc+Vi%E1%BB%85n+%C4%90%C3%B4ng/@21.8340291,104.7585463,1228m/data=!3m1!1e3!4m8!1m2!2m1!1sHop,+Bao+Dap,+Tran+Yen,+Yen+Bai!3m4!1s0x31334eb65ef3ec4f:0x72bcb39d2a0c00fb!8m2!3d21.8316748!4d104.75959",,,https://urbixresources.com/urbix-and-vietnam-graphite-group-to-build-green-purification-plant/,https://www.graphene-info.com/urbix-resources-build-purification-plant-vietnam,,,,,https://urbixresources.com/urbix-and-vietnam-graphite-group-to-build-green-purification-plant/,,,,,,,,,,,,,,,,,POINT (104.75850000000008 21.83400000000006),Graphite Purification Plant,Assumed Active,,Urbix Resources
Indopacific,INDOPAC_Mineral_Development,Bhutan,,Takti Chu Graphite Deposit,,,Graphite,Graphite,,,,,,,,BTd5,,Crude,,,,,,,"Dong, Southeast Takti Chu, Bjagchhog Gewog, Chhukha ",27.1,89.56,A,,,,,,,Chhukha,,Donga,,,,,,,,,,,,about 3 km NE of Chimakha,,,,,Mines and Quarries,,,,,,,2021.0,https://openjicareport.jica.go.jp/pdf/12357372.pdf,"http://www.seanpatricklong.com/uploads/1/4/5/6/14564072/long_etal_2011_gsab_bhutan_lh_tec-strat.pdf#:~:text=The%20Baxa%20Group%2C%202%E2%80%933%20km%20of%20quartzite%2C%20phyllite%2C,peaks%2C%20indicating%20a%20Neoproterozoic%E2%80%93%20Cambrian%28%3F%29%",,,,,,,,,,,http://www.citypopulation.de/en/bhutan/admin/,,BTd05,Feasibility,https://openjicareport.jica.go.jp/pdf/12357372.pdf,,,,,,,,,,,POINT (89.56000000000006 27.100000000000023),Takti Chu Graphite Deposit,Feasibility,2021.0,
Indopacific,INDOPAC_Mineral_Development,Bhutan,,Chelela ,,,Graphite,Graphite,,,,,,,,BTd9,,Crude,,,,,,,"Chelela, Kar-tshog Gewog, Haa ",27.38,89.33,A,,,,,,,Haa,,,,,,,,,,,,,,about 10 km SW of Paro,,,,,Mines and Quarries,,,,,,,2021.0,https://openjicareport.jica.go.jp/pdf/12357372.pdf,,,,,,,,,,,,http://www.citypopulation.de/en/bhutan/admin/,,BTd09,Feasibility,https://openjicareport.jica.go.jp/pdf/12357372.pdf,,,,,,,,,,,POINT (89.33000000000004 27.380000000000052),Chelela ,Feasibility,2021.0,
Indopacific,INDOPAC_Mineral_Development,Sri Lanka,,M1 Development,,,Graphite,Graphite,,,,,JADS Enterprises Pvt. Ltd.,,,LKd1,,Crude,,,,,,,"Ibbagamuwa, Kurunegala, North Western",7.69,80.53,A,,,Plumbago Refining Corp. B. V. (Ceylon Graphite Corp. (CYL)) [100%],,,,North Western,,EL/361; Malsiripura Project; M1,,,,,,,,,,,,about 30 km NE of Kurunegala,,,,,Mines and Quarries,,,,,,,2022.0,https://www.ceylongraphite.com/work-sites/m1-development/,https://www.ceylongraphite.com/wp-content/uploads/2018/12/CYL-Malsiripura-Complete-Report_signed_reduced.pdf,,,https://www.ceylongraphite.com/work-sites/m1-development/,,https://www.ceylongraphite.com/wp-content/uploads/2018/12/CYL-Malsiripura-Complete-Report_signed_reduced.pdf,https://www.ceylongraphite.com/work-sites/m1-development/,,,,,,,LKd01,Construction,https://www.ceylongraphite.com/work-sites/m1-development/,https://www.ceylongraphite.com/news/ceylon-graphite-cyl-industrial-mining-license-for-the-m1-mining-project-granted/,,,,,,,,,,POINT (80.53000000000003 7.690000000000055),M1 Development,Construction,2022.0,Plumbago Refining Corp. B. V. (Ceylon Graphite Corp. (CYL)) [100%]
Indopacific,INDOPAC_Mineral_Exploration,Bhutan,,Depchasa Dorjamsa ,,,Graphite,Graphite,,Inactive,,,,,,BTx2,,,,,,,,,"Depchasa Dorjamsa, Bjagchhog Gewog, Chhukha ",27.1,89.65,A,,,,,,,Chhukha,,Dapchasa-Dorjomsa,,,,,,,,,,,BTx002,about 12 km E of Chimakha,,,,,,,,,,,,2021.0,https://openjicareport.jica.go.jp/pdf/12357372.pdf,https://repository.unescap.org/bitstream/handle/20.500.12870/4712/ESCAP-1991-MN-Atlas-mineral-resources-ESCAP-region-vol-8-map.pdf?sequence=2,,,,,https://openjicareport.jica.go.jp/pdf/12357372.pdf,,,,,,,,,,https://openjicareport.jica.go.jp/pdf/12357372.pdf,,,,,,,,,,,POINT (89.65000000000003 27.100000000000023),Depchasa Dorjamsa ,Inactive,2021.0,
Indopacific,INDOPAC_Mineral_Exploration,Bhutan,,Dunga ,,,Graphite,Graphite,,Inactive,,,,,,BTx3,,,,,,,,,"Bongo Gewog, Chhukha ",26.97,89.61,A,,,,,,,Chhukha,,Donga,,,,,,,,,,,BTx003,about 10 km NE of Gedu,,,,,,,,,,,,2021.0,https://openjicareport.jica.go.jp/pdf/12357372.pdf,https://repository.unescap.org/bitstream/handle/20.500.12870/4712/ESCAP-1991-MN-Atlas-mineral-resources-ESCAP-region-vol-8-map.pdf?sequence=2,,,,,https://openjicareport.jica.go.jp/pdf/12357372.pdf,,,,,,,,,,https://openjicareport.jica.go.jp/pdf/12357372.pdf,,,,,,,,,,,POINT (89.61000000000007 26.970000000000027),Dunga ,Inactive,2021.0,
Indopacific,INDOPAC_Mineral_Exploration,Bhutan,,Khepcheshi ,,,Graphite,Graphite,,Preliminary Study,,,State Mining Corp. Ltd. (SMCL),,,BTx6,,,,,,,,,"Chelela, Uesu Gewog, Haa ",27.38,89.33,A,,,Druk Holding & Investments Ltd. [100%],,,,Haa,,Khepchishi; Khepchishi Hill,,,,,,,,,,,BTx006,about 6 km NE of Takchu,,,,,,,,,,,,2021.0,https://www.smcl.bt/#/,https://openjicareport.jica.go.jp/pdf/12357372.pdf,,,https://www.smcl.bt/#/,https://dhi.bt/,https://www.smcl.bt/#/,https://openjicareport.jica.go.jp/pdf/12357372.pdf,,,,,,,,,https://www.smcl.bt/#/,https://openjicareport.jica.go.jp/pdf/12357372.pdf,,,,,,,,,,POINT (89.33000000000004 27.380000000000052),Khepcheshi ,Preliminary Study,2021.0,Druk Holding & Investments Ltd. [100%]
Indopacific,INDOPAC_Mineral_Exploration,Burma,,Dokhta Chaung,,,Copper,Copper,,Inactive,,,Horizon Mines Ltd.,,,MMx1,,,,,,,,,"Pathein District, Ayeyarwady Region",17.17,94.81,A,,,Horizon Mines Ltd.,,,,Ayeyarwady Region,,,,Gold,Graphite,Zinc,Lead,,,,,,MMx001,about 82 km NW of Yangon,,,,,,,,,,,,2014.0,https://hotcopper.com.au/threads/ann-september-2013-quarterly-activities-report.2106211/,https://www.google.com/maps,,,http://www.discoveryafrica.com.au/irm/PDF/25366571-524d-492d-94d2-5f71fe935bae/ClarificationampCorrectionMyanmarProject,https://hotcopper.com.au/threads/ann-september-2013-quarterly-activities-report.2106211/,https://hotcopper.com.au/threads/ann-september-2013-quarterly-activities-report.2106211/,,,,,,,,,,,,,,,,,,,,,POINT (94.81000000000006 17.170000000000073),Dokhta Chaung,Inactive,2014.0,Horizon Mines Ltd.
Indopacific,INDOPAC_Mineral_Exploration,Burma,,Letpadan,,,Copper,Copper,,Inactive,,,Horizon Mines Ltd.,,,MMx5,,,,,,,,,"Tharrawaddy District, Bago Region",17.78,95.75,A,,,Horizon Mines Ltd.,,,,Bago Region,,Letpadaung,,Gold,Graphite,Zinc,Lead,,,,,,MMx005,about 33 km NW of Bago,,,,,,,,,,,,2014.0,https://hotcopper.com.au/threads/ann-september-2013-quarterly-activities-report.2106211/,https://www.google.com/maps,,,http://www.discoveryafrica.com.au/irm/PDF/25366571-524d-492d-94d2-5f71fe935bae/ClarificationampCorrectionMyanmarProject,https://hotcopper.com.au/threads/ann-september-2013-quarterly-activities-report.2106211/,https://hotcopper.com.au/threads/ann-september-2013-quarterly-activities-report.2106211/,,,,,,,,,,,,,,,,,,,,,POINT (95.75000000000006 17.78000000000003),Letpadan,Inactive,2014.0,Horizon Mines Ltd.
Indopacific,INDOPAC_Mineral_Exploration,Burma,,Shwebo,,,Copper,Copper,,Inactive,,,Horizon Mines Ltd.,,,MMx56,,,,,,,,,"Shwebo District, Sagaing Region",22.57,95.7,A,,,Horizon Mines Ltd.,,,,Sagaing Region,,,,Gold,Graphite,Zinc,Lead,,,,,,MMx056,about 109 km NNW of Mandalay,,,,,,,,,,,,2014.0,https://hotcopper.com.au/threads/ann-september-2013-quarterly-activities-report.2106211/,https://www.google.com/maps,,,http://www.discoveryafrica.com.au/irm/PDF/25366571-524d-492d-94d2-5f71fe935bae/ClarificationampCorrectionMyanmarProject,https://hotcopper.com.au/threads/ann-september-2013-quarterly-activities-report.2106211/,https://hotcopper.com.au/threads/ann-september-2013-quarterly-activities-report.2106211/,,,,,,,,,,,,,,,,,,,,,POINT (95.70000000000005 22.57000000000005),Shwebo,Inactive,2014.0,Horizon Mines Ltd.
Indopacific,INDOPAC_Mineral_Exploration,"Korea, South",,Daewon,,,Graphite,Graphite,,Exploration,,,"Korea Graphite Co., Ltd.",,,KRx2,,,,,,,,,"Chuncheon, Gangwon",37.51,127.93,A,,,"Korean Resources Pty. Ltd. (MGM O'Connor Corporate Advisory Pty. Ltd., 77.5%, and Xantippe Resources Ltd. (XTC), 22.5%) [100%]",,,,Gangwon,,Yangdeokwon 50-2 (200917),,,,,,,,,,,KRx002,about 25 km N of Wonju-si,,,,,,,,,,,,2022.0,"https://earth.google.com/web/search/37.506130,+127.927920/@37.50613,127.92792,492.74244913a,817.37231163d,35y,0h,45t,0r/data=ClkaLxIpGSLDKt7IwEJAIXpTkQpj-19AKhUzNy41MDYxMzAsIDEyNy45Mjc5MjAYAiABIiYKJAkwfYUYNQM1QBEvfYUYNQM1wBmqISuZxblJQCGnISuZxblJwCgC",http://www.desertenergy.com.au/wp-content/uploads/Daewon-Graphite-high-grade-concentrate-and-other-new-projects-270617.pdf,,,http://www.desertenergy.com.au/graphite-projects-in-south-korea/,http://xantippe.com.au/wp-content/uploads/2020/04/XTC-name-change-230120-Amend-1.pdf,https://www.marketscreener.com/quote/stock/XANTIPPE-RESOURCES-LIMITE-17632503/news/Peninsula-Mines-Ltd-Announces-Daewon-Graphite-Project-Excellent-Metallurgical-Results-Four-New-Fla-35045734/,https://www.proactiveinvestors.ca/companies/news/166119/peninsula-mines-ltd-identifies-jumbo-sized-flake-graphite-in-south-korea-71096.html,,,,,https://www.investi.com.au/api/announcements/xtc/6782f9b2-583.pdf,,,,https://www.investi.com.au/api/announcements/xtc/6782f9b2-583.pdf,https://www.asx.com.au/asxpdf/20180928/pdf/43ytc0twrd4xsf.pdf,,,,,,,,,,POINT (127.93000000000006 37.51000000000005),Daewon,Exploration,2022.0,"Korean Resources Pty. Ltd. (MGM O'Connor Corporate Advisory Pty. Ltd., 77.5%, and Xantippe Resources Ltd. (XTC), 22.5%) [100%]"
Indopacific,INDOPAC_Mineral_Exploration,"Korea, South",,Taehwa Project,,,Graphite,Graphite,,Exploration,,,Battery Mineral Resources Ltd.,,,KRx6,,,,,,,,,"Chuncheon, Gangwon",37.83,127.85,A,,,Battery Mineral Resources Ltd. [100%],,,,Gangwon,,Hongcheon 91-2; Taehwa,,,,,,,,,,,KRx006,about 10 km SE of Chuncheon,,,,,,,,,,,,2022.0,https://bmrcorp.com/projects/graphite/guemam-graphite/,https://www.google.com/maps,,,https://bmrcorp.com/site/assets/files/6390/financial_statements_september_30-_2022.pdf,,https://bmrcorp.com/projects/graphite/guemam-graphite/,,,,,,,,,,https://bmrcorp.com/site/assets/files/6390/financial_statements_september_30-_2022.pdf,,,,,,,,,,,POINT (127.85000000000002 37.83000000000004),Taehwa Project,Exploration,2022.0,Battery Mineral Resources Ltd. [100%]
Indopacific,INDOPAC_Mineral_Exploration,"Korea, South",,Gapyeong,,,Graphite,Graphite,,Exploration,,,"Korea Graphite Co., Ltd.",,,KRx7,,,,,,,,,"Gapyeong, Gyeonggi",37.76,127.54,A,,,"Korean Resources Pty. Ltd. (MGM O'Connor Corporate Advisory Pty. Ltd., 77.5%, and Xantippe Resources Ltd. (XTC), 22.5%) [100%]",,,,Gyeonggi,,Gapyeong 124-4 (201099); Gapyeong 125-3 (201038),,,,,,,,,,,KRx007,about 22 km SW of Chuncheon,,,,,,,,,,,,2022.0,http://web.archive.org/web/20180311212134/http://peninsulamines.com.au/wp-content/uploads/2018/02/Quarterly-Activities-and-Cash-Flow-Report-December-17.pdf,https://www.google.com/maps,,,http://web.archive.org/web/20180311212134/http://peninsulamines.com.au/wp-content/uploads/2018/02/Quarterly-Activities-and-Cash-Flow-Report-December-17.pdf,https://www.investi.com.au/api/announcements/xtc/6782f9b2-583.pdf,http://web.archive.org/web/20180311212134/http://peninsulamines.com.au/wp-content/uploads/2018/02/Quarterly-Activities-and-Cash-Flow-Report-December-17.pdf,,,,,,http://xantippe.com.au/wp-content/uploads/2020/04/XTC-name-change-230120-Amend-1.pdf,,,,https://www.investi.com.au/api/announcements/xtc/a7f4702d-779.pdf,,,,,,,,,,,POINT (127.54000000000008 37.76000000000005),Gapyeong,Exploration,2022.0,"Korean Resources Pty. Ltd. (MGM O'Connor Corporate Advisory Pty. Ltd., 77.5%, and Xantippe Resources Ltd. (XTC), 22.5%) [100%]"
Indopacific,INDOPAC_Mineral_Exploration,"Korea, South",,Janggohang,,,Graphite,Graphite,,Inactive,,,"Korea Graphite Co., Ltd.",,,KRx12,,,,,,,,,"Dangjin, North Chuncheong",37.02,126.53,A,,,"Korean Resources Pty. Ltd. (MGM O'Connor Corporate Advisory Pty. Ltd., 77.5%, and Xantippe Resources Ltd. (XTC), 22.5%) [100%]",,,,North Chungcheong,,,,,,,,,,,,,KRx012,about 16 km NW of Dangjin,,,,,,,,,,,,2016.0,"https://earth.google.com/web/search/37.016,+126.533/@37.01642841,126.53360131,39.18355988a,2272.46163579d,35y,47.6050631h,44.77973339t,0r/data=ClMaKRIjGTVeukkMgkJAIScxCKwcol9AKg8zNy4wMTYsIDEyNi41MzMYAiABIiYKJAk5dr4jNQM1QBElhEwNNQM1wBk0nzeyxblJQCGDlIeFxblJwA",http://www.desertenergy.com.au/wp-content/uploads/PSM-Graphite-tenements.pdf,,,https://xantippe.com.au/our-projects/south-korean-assets/,http://xantippe.com.au/wp-content/uploads/2020/04/XTC-name-change-230120-Amend-1.pdf,https://www.engineeringnews.co.za/article/peninsula-upbeat-about-south-korea-graphite-projects-2016-06-21,http://www.desertenergy.com.au/wp-content/uploads/PSM-Graphite-tenements.pdf,,,,,https://www.investi.com.au/api/announcements/xtc/6782f9b2-583.pdf,,,,http://www.desertenergy.com.au/wp-content/uploads/PSM-Graphite-tenements.pdf,https://www.asx.com.au/asxpdf/20160912/pdf/43b3pqltf0m1b7.pdf,,,,,,,,,,POINT (126.53000000000009 37.02000000000004),Janggohang,Inactive,2016.0,"Korean Resources Pty. Ltd. (MGM O'Connor Corporate Advisory Pty. Ltd., 77.5%, and Xantippe Resources Ltd. (XTC), 22.5%) [100%]"
Indopacific,INDOPAC_Mineral_Exploration,"Korea, South",,Yongwon,,,Graphite,Graphite,,Exploration,,,"Korea Graphite Co., Ltd.",,,KRx14,,,,,,,,,"Chungju, North Chungcheong",36.98,127.69,A,,,"Korean Resources Pty. Ltd. (MGM O'Connor Corporate Advisory Pty. Ltd., 77.5%, and Xantippe Resources Ltd. (XTC), 22.5%) [100%]",,,,North Chungcheong,,Eumseong 22; Eumseong 32; Eumseong 32-1(200811),,,,,,,,,,,KRx014,about 15 km W of Cheongju-si,,,,,,,,,,,,2021.0,https://www.investi.com.au/api/announcements/xtc/3f9161f6-0ae.pdf,https://www.google.com/maps,,,https://xantippe.com.au/our-projects/south-korean-assets/,https://www.investi.com.au/api/announcements/xtc/6782f9b2-583.pdf,http://web.archive.org/web/20180311212339/http://peninsulamines.com.au/wp-content/uploads/2017/09/Peninsula-Full-Annual-Report-2017-FINAL-TO-LODGE.pdf,,,,,,http://xantippe.com.au/wp-content/uploads/2020/04/XTC-name-change-230120-Amend-1.pdf,,,,https://www.investi.com.au/api/announcements/xtc/a7f4702d-779.pdf,,,,,,,,,,,POINT (127.69000000000005 36.980000000000075),Yongwon,Exploration,2021.0,"Korean Resources Pty. Ltd. (MGM O'Connor Corporate Advisory Pty. Ltd., 77.5%, and Xantippe Resources Ltd. (XTC), 22.5%) [100%]"
Indopacific,INDOPAC_Mineral_Exploration,"Korea, South",,Wolmyeong,,,Graphite,Graphite,,Exploration,,,"Korea Graphite Co., Ltd.",,,KRx21,,,,,,,,,"Sangju, North Gyeongsang",36.35,127.89,A,,,"Korean Resources Pty. Ltd. (MGM O'Connor Corporate Advisory Pty. Ltd., 77.5%, and Xantippe Resources Ltd. (XTC), 22.5%) [100%]",,,,North Gyeongsang,,Cheongsan 69-2 (200812); Cheongsan 69-4 (200812); Cheongsan 79-2 (200813); Cheongsan 79-4 (200813); Cheongsan 89-1 (200814),,,,,,,,,,,KRx021,about 30 km E of Okcheon,,,,,,,,,,,,2023.0,http://web.archive.org/web/20180311212339/http://peninsulamines.com.au/wp-content/uploads/2017/09/Peninsula-Full-Annual-Report-2017-FINAL-TO-LODGE.pdf,https://www.google.com/maps,,,https://www.investi.com.au/api/announcements/xtc/6782f9b2-583.pdf,http://xantippe.com.au/wp-content/uploads/2020/04/XTC-name-change-230120-Amend-1.pdf,http://web.archive.org/web/20180311212339/http://peninsulamines.com.au/wp-content/uploads/2017/09/Peninsula-Full-Annual-Report-2017-FINAL-TO-LODGE.pdf,,,,,,,,,,https://www.investi.com.au/api/announcements/xtc/a7f4702d-779.pdf,,,,,,,,,,,POINT (127.8900000000001 36.35000000000008),Wolmyeong,Exploration,2023.0,"Korean Resources Pty. Ltd. (MGM O'Connor Corporate Advisory Pty. Ltd., 77.5%, and Xantippe Resources Ltd. (XTC), 22.5%) [100%]"
Indopacific,INDOPAC_Mineral_Exploration,"Korea, South",,Eunha,,,Graphite,Graphite,,Exploration,,,"Korea Graphite Co., Ltd.",,,KRx24,,,,,,,,,"Hongseong, South Chungcheong",36.57,126.52,A,,,"Korean Resources Pty. Ltd. (MGM O'Connor Corporate Advisory Pty. Ltd., 77.5%, and Xantippe Resources Ltd. (XTC), 22.5%) [100%]",,,,South Chungcheong,,Hongseong 106-2 (201098); Hongseong 107-1 (201010); Hongseong 97-4 (201101); Hongseong107?2 (201010),,,,,,,,,,,KRx024,about 23 km SSE of Seosan,,,,,,,,,,,,2022.0,https://www.investi.com.au/api/announcements/xtc/3f9161f6-0ae.pdf,https://www.google.com/maps,,,https://www.investi.com.au/api/announcements/xtc/a7f4702d-779.pdf,http://xantippe.com.au/wp-content/uploads/2020/04/XTC-name-change-230120-Amend-1.pdf,https://www.investi.com.au/api/announcements/xtc/3f9161f6-0ae.pdf,,,,,,https://xantippe.com.au/our-projects/south-korean-assets/,,,,https://www.investi.com.au/api/announcements/xtc/6782f9b2-583.pdf,,,,,,,,,,,POINT (126.5200000000001 36.57000000000005),Eunha,Exploration,2022.0,"Korean Resources Pty. Ltd. (MGM O'Connor Corporate Advisory Pty. Ltd., 77.5%, and Xantippe Resources Ltd. (XTC), 22.5%) [100%]"
Indopacific,INDOPAC_Mineral_Exploration,"Korea, South",,Geumam,,,Graphite,Graphite,,Preliminary Study,,,Battery Mineral Resources Ltd.,,,KRx25,,,,,,,,,"Dangsan, South Chungcheong",36.92,126.65,A,,,Battery Mineral Resources Ltd. [100%],,,,South Chungcheong,,,,,,,,,,,,,KRx025,about 23 km NE of Seosan,,,,,,,,,,,,2019.0,https://bmrcorp.com/projects/graphite/guemam-graphite/,https://www.google.com/maps,,,https://bmrcorp.com/site/assets/files/6390/financial_statements_september_30-_2022.pdf,,https://bmrcorp.com/projects/graphite/guemam-graphite/,,,,,,,,,,https://bmrcorp.com/site/assets/files/6390/financial_statements_september_30-_2022.pdf,,,,,,,,,,,POINT (126.65000000000009 36.92000000000007),Geumam,Preliminary Study,2019.0,Battery Mineral Resources Ltd. [100%]
Indopacific,INDOPAC_Mineral_Exploration,Sri Lanka,,Pujapitiya,,,Graphite,Graphite,,Inactive,,,MRL Graphene (PVT) Ltd.,,,LKx1,,,,,,,,,"Kandy, Central ",7.4,80.59,A,,,First Graphene Ltd. [100%],,,,Central,,EL 262; Mornakanda; Pujapatiya; Pujapetiya; Pujipitya,,,,,,,,,,,LKx001,about 13 km NNW of Kandy,,,,,,,,,,,,2015.0,http://www.fareastcapital.com.au/imagesDB/newsletter/MRL21August2015.pdf,,,,http://www.fareastcapital.com.au/imagesDB/newsletter/MRL21August2015.pdf,,http://www.fareastcapital.com.au/imagesDB/newsletter/MRL21August2015.pdf,,,,,,,,,,https://firstgraphene.net/wp-content/uploads/2022/09/FGR-Annual-Report-FY2022.pdf,https://firstgraphene.net/wp-content/uploads/2020/06/20190830-2019-Annual-Report.pdf,,,,,,,,,,POINT (80.59000000000003 7.400000000000034),Pujapitiya,Inactive,2015.0,First Graphene Ltd. [100%]
Indopacific,INDOPAC_Mineral_Exploration,Sri Lanka,,Project Wara South Asia,,,Graphite,Graphite,,Exploration,,,AMECA Mining,,,LKx4,,,,,,,,,"Seruwawila, Seruvila, Trincomalee, Eastern ",8.3933,81.3352,E,,,AMECA Global,,,,Eastern,,EL/409; Seruwawila; Serwulia; Wara,,,,,,,,,,,LKx004,about 25 km SE of Trincomalee,,,,,,,,,,,,2022.0,https://www.amecamining.com/serwulia,"https://static.wixstatic.com/media/1416ce_1ee6f7ea2dc0448f8d1b503213eb0c87~mv2.png/v1/fill/w_464,h_524,al_c,q_85,usm_0.66_1.00_0.01,enc_auto/Map%20of%20Exploration%20License.png",,,https://www.amecamining.com/serwulia,https://www.amecamining.com/seruwila-graphite,https://www.amecamining.com/graphite,https://www.amecamining.com/seruwila-graphite,,,,,https://www.amecaglobal.com/wara,,,,https://www.amecamining.com/serwulia,,,,,,,,,,,POINT (81.33520000000004 8.393300000000067),Project Wara South Asia,Exploration,2022.0,AMECA Global
Indopacific,INDOPAC_Mineral_Exploration,Sri Lanka,,H1 Development,,,Graphite,Graphite,,Exploration,,,Sarcon Development (PVT) Ltd.,,,LKx5,,,,,,,,,"Palagala, Anuradhapura, North Central ",7.88,80.56,A,,,Plumbago Refining Corp. B. V. (Ceylon Graphite Corp. (CYL)) [100%],,,,North Central,,EL/221; H1; Hakbewa,,,,,,,,,,,LKx005,about 10 km WNW of Dambulla,,,,,,,,,,,,2022.0,https://www.ceylongraphite.com/work-sites/h1-development/,,,,https://www.ceylongraphite.com/work-sites/h1-development/,,https://www.ceylongraphite.com/work-sites/h1-development/,https://graphitedaily.com/ceylon-graphite-announces-discovery-of-new-graphite-veins-and-provides-operational-update/,,,,,,,,,https://www.ceylongraphite.com/work-sites/h1-development/,,,,,,,,,,,POINT (80.56000000000006 7.880000000000052),H1 Development,Exploration,2022.0,Plumbago Refining Corp. B. V. (Ceylon Graphite Corp. (CYL)) [100%]
Indopacific,INDOPAC_Mineral_Exploration,Sri Lanka,,Graphite Deposit in Udakendawala,,,Graphite,Graphite,,Inactive,,,Graphene Corp. (PVT) Ltd.,,,LKx6,,,,,,,,,"Udakendawala, Rideegama, Kurunegala, North Western ",7.63,80.54,A,,,Elcora Advanced Materials Corp. [100%],,,,North Western,,,,,,,,,,,,,LKx006,about 26 km NE of Kurunegala,,,,,,,,,,,,2014.0,https://www.capitaliq.spglobal.com/web/client?auth=inherit#metalsAndMiningProperty/location?ID=67715,https://www.google.com/maps/,,,https://secure.kaiserresearch.com/s8/ResearchTools.asp?ReportID=600582,https://investingnews.com/daily/resource-investing/battery-metals-investing/graphite-investing/elcora-resources-to-acquire-sri-lankas-graphene-corp/,https://investingnews.com/daily/resource-investing/battery-metals-investing/graphite-investing/elcora-resources-to-acquire-sri-lankas-graphene-corp/,,,,,,,,,,https://www.capitaliq.spglobal.com/web/client?auth=inherit#metalsAndMiningProperty/profile?ID=67715,,,,,,,,,,,POINT (80.54000000000008 7.630000000000052),Graphite Deposit in Udakendawala,Inactive,2014.0,Elcora Advanced Materials Corp. [100%]
Indopacific,INDOPAC_Mineral_Exploration,Sri Lanka,,Matale/Kurunegala,,,Graphite,Graphite,,Inactive,,,Bora Bora Resources Ltd.,,,LKx7,,,,,,,,,"Rideegama, Kurunegala, North Western ",7.57,80.53,A,,,Bora Bora Resources Ltd.,,,,North Western,,EL 211; EL 212; EL/211; EL/247; EL/899; EL/900; Kingfisher; Kurunegala; Matale; Paragoda; Paragoda North; Paragoda South; Sakura,,,,,,,,,,,LKx007,about 33 km NNW of Kandy,,,,,,,,,,,,2016.0,https://www.asx.com.au/asxpdf/20160429/pdf/436vftcyk35f44.pdf,https://www.google.com/maps,,,https://www.graphene-info.com/bora-bora-resources,http://www.aspecthuntley.com.au/asxdata/20150423/pdf/01618510.pdf,https://www.asx.com.au/asxpdf/20160429/pdf/436vftcyk35f44.pdf,,,,,,https://www.asx.com.au/asxpdf/20160429/pdf/436vftcyk35f44.pdf,,,,https://www.asx.com.au/asxpdf/20160429/pdf/436vftcyk35f44.pdf,https://info.creditriskmonitor.com/Report/ReportPreview.aspx?BusinessId=19378028,,,,,,,,,,POINT (80.53000000000003 7.57000000000005),Matale/Kurunegala,Inactive,2016.0,Bora Bora Resources Ltd.
Indopacific,INDOPAC_Mineral_Exploration,Sri Lanka,,AvissaWella Project,,,Graphite,Graphite,,Exploration,,,Margosa Graphite Ltd.,,,LKx12,,,,,,,,,"Seethawaka, Colombo, Western ",6.95,80.24,A,,,Zeta Resources Ltd. [33%],,,,Sabaragamuwa,,,,,,,,,,,,,LKx012,about 45 km E of Colombo,,,,,,,,,,,,2021.0,https://www.margosagraphite.com/about-us/company-overview/,,,,https://www.margosagraphite.com/wp-content/uploads/2021/11/MargosaGraphiteLimited2021AnnualReport01Nov21.pdf,,https://www.margosagraphite.com/about-us/company-overview/,,,,,,https://www.zetaresources.limited/application/files/3616/6415/6410/Zeta_2022_Annual_Report_WEB.pdf,,,,https://www.margosagraphite.com/wp-content/uploads/2021/11/MargosaGraphiteLimited2021AnnualReport01Nov21.pdf,,,,,,,,,,,POINT (80.24000000000007 6.9500000000000455),AvissaWella Project,Exploration,2021.0,Zeta Resources Ltd. [33%]
Indopacific,INDOPAC_Mineral_Exploration,Sri Lanka,,Bopitiya Project,,,Graphite,Graphite,,Exploration,,,Margosa Graphite Ltd.,,,LKx13,,,,,,,,,"Ruwanwella, Kegalle, Sabaragamuwa ",7.13,80.23,A,,,Zeta Resources Ltd. [33%],,,,Sabaragamuwa,,EL/255,,,,,,,,,,,LKx013,about 50 km NE of Colombo,,,,,,,,,,,,2021.0,https://www.margosagraphite.com/about-us/company-overview/,,,,https://www.margosagraphite.com/wp-content/uploads/2021/11/MargosaGraphiteLimited2021AnnualReport01Nov21.pdf,,https://www.margosagraphite.com/about-us/company-overview/,,,,,,https://www.zetaresources.limited/application/files/3616/6415/6410/Zeta_2022_Annual_Report_WEB.pdf,,,,https://www.margosagraphite.com/wp-content/uploads/2021/11/MargosaGraphiteLimited2021AnnualReport01Nov21.pdf,,,,,,,,,,,POINT (80.23000000000008 7.130000000000052),Bopitiya Project,Exploration,2021.0,Zeta Resources Ltd. [33%]
Indopacific,INDOPAC_Mineral_Exploration,Sri Lanka,,Dumbara Project,,,Graphite,Graphite,,Exploration,,,Margosa Graphite Ltd.,,,LKx15,,,,,,,,,"Keenagahawila, Ayagama, Ratnapura, Sabaragamuwa ",6.73,80.21,A,,,Zeta Resources Ltd. [33%],,,,Sabaragamuwa,,EL/264; EL/311; EL/312; EL/313,,,,,,,,,,,LKx015,about 55 km SE of Colombo,,,,,,,,,,,,2021.0,https://www.margosagraphite.com/projects/dumbara/,https://www.margosagraphite.com/about-us/company-overview/,,,https://www.margosagraphite.com/projects/dumbara/,https://www.margosagraphite.com/wp-content/uploads/2021/11/MargosaGraphiteLimited2021AnnualReport01Nov21.pdf,https://www.margosagraphite.com/projects/dumbara/,,,,,,https://www.zetaresources.limited/application/files/3616/6415/6410/Zeta_2022_Annual_Report_WEB.pdf,,,,https://www.margosagraphite.com/wp-content/uploads/2021/11/MargosaGraphiteLimited2021AnnualReport01Nov21.pdf,,,,,,,,,,,POINT (80.21000000000004 6.730000000000075),Dumbara Project,Exploration,2021.0,Zeta Resources Ltd. [33%]
Indopacific,INDOPAC_Mineral_Exploration,Sri Lanka,,Gabbala Project,,,Graphite,Graphite,,Exploration,,,Margosa Graphite Ltd.,,,LKx16,,,,,,,,,"Rambukkana, Kegalle, Sabaragamuwa ",7.35,80.4,A,,,Zeta Resources Ltd. [33%],,,,Sabaragamuwa,,,,,,,,,,,,,LKx016,about 15 km SSE of Kurunegala,,,,,,,,,,,,2021.0,https://www.margosagraphite.com/about-us/company-overview/,,,,https://www.margosagraphite.com/wp-content/uploads/2021/11/MargosaGraphiteLimited2021AnnualReport01Nov21.pdf,,https://www.margosagraphite.com/about-us/company-overview/,,,,,,https://www.zetaresources.limited/application/files/3616/6415/6410/Zeta_2022_Annual_Report_WEB.pdf,,,,https://www.margosagraphite.com/wp-content/uploads/2021/11/MargosaGraphiteLimited2021AnnualReport01Nov21.pdf,,,,,,,,,,,POINT (80.40000000000003 7.350000000000023),Gabbala Project,Exploration,2021.0,Zeta Resources Ltd. [33%]
Indopacific,INDOPAC_Mineral_Exploration,Sri Lanka,,Kithulgala Project,,,Graphite,Graphite,,Exploration,,,Margosa Graphite Ltd.,,,LKx17,,,,,,,,,"Malapola, Yatiyanthota, kegalle, Sabaragamuwa ",7.05,80.32,A,,,Zeta Resources Ltd. [33%],,,,Sabaragamuwa,,EL/270,,,,,,,,,,,LKx017,about 4 km NE of Yatiyanthota,,,,,,,,,,,,2021.0,https://www.margosagraphite.com/projects/kithulgala/,https://www.margosagraphite.com/about-us/company-overview/,,,https://www.margosagraphite.com/projects/kithulgala/,https://www.margosagraphite.com/wp-content/uploads/2021/11/MargosaGraphiteLimited2021AnnualReport01Nov21.pdf,https://www.margosagraphite.com/projects/kithulgala/,,,,,,https://www.zetaresources.limited/application/files/3616/6415/6410/Zeta_2022_Annual_Report_WEB.pdf,,,,https://www.margosagraphite.com/wp-content/uploads/2021/11/MargosaGraphiteLimited2021AnnualReport01Nov21.pdf,,,,,,,,,,,POINT (80.32000000000005 7.050000000000068),Kithulgala Project,Exploration,2021.0,Zeta Resources Ltd. [33%]
Indopacific,INDOPAC_Mineral_Exploration,Sri Lanka,,Kukulaga Project,,,Graphite,Graphite,,Exploration,,,Margosa Graphite Ltd.,,,LKx18,,,,,,,,,"Ayagama, Ratnapura, Sabaragamuwa ",6.67,80.25,A,,,Zeta Resources Ltd. [33%],,,,Sabaragamuwa,,,,,,,,,,,,,LKx018,about 55 km SE of Colombo,,,,,,,,,,,,2021.0,https://www.margosagraphite.com/about-us/company-overview/,,,,https://www.margosagraphite.com/wp-content/uploads/2021/11/MargosaGraphiteLimited2021AnnualReport01Nov21.pdf,,https://www.margosagraphite.com/about-us/company-overview/,,,,,,https://www.zetaresources.limited/application/files/3616/6415/6410/Zeta_2022_Annual_Report_WEB.pdf,,,,https://www.margosagraphite.com/wp-content/uploads/2021/11/MargosaGraphiteLimited2021AnnualReport01Nov21.pdf,,,,,,,,,,,POINT (80.25000000000006 6.670000000000073),Kukulaga Project,Exploration,2021.0,Zeta Resources Ltd. [33%]
Indopacific,INDOPAC_Mineral_Exploration,Sri Lanka,,Rakwana,,,Graphite,Graphite,,Inactive,,,Bora Bora Resources Ltd.,,,LKx19,,,,,,,,,"Rakwana, Godakawela, Ratnapura, Sabaragamuwa ",6.47,80.62,A,,,Bora Bora Resources Ltd.,,,,Sabaragamuwa,,,,,,,,,,,,,LKx019,about 65 km NE of Galle,,,,,,,,,,,,2014.0,https://www.asiaminer.com/news/archive/136-2013/july-2013/4766-sri-lanka--bora-bora-gains-additional-land.html#.Y9FTPpLMKUl,,,,https://www.asiaminer.com/news/archive/136-2013/july-2013/4766-sri-lanka--bora-bora-gains-additional-land.html#.Y6SYpHbMKUk,,https://www.asiaminer.com/news/archive/136-2013/july-2013/4766-sri-lanka--bora-bora-gains-additional-land.html#.Y9FTPpLMKUl,,,,,,,,,,https://www.asiaminer.com/news/archive/136-2013/july-2013/4766-sri-lanka--bora-bora-gains-additional-land.html#.Y9FTPpLMKUl,https://www.capitaliq.spglobal.com/web/client?auth=inherit#metalsAndMiningProperty/generalComments?ID=66397,,,,,,,,,,POINT (80.62000000000006 6.470000000000027),Rakwana,Inactive,2014.0,Bora Bora Resources Ltd.
Indopacific,INDOPAC_Mineral_Exploration,Sri Lanka,,Waharaka Project,,,Graphite,Graphite,,Exploration,,,Margosa Graphite Ltd.,,,LKx20,,,,,,,,,"Amithirigala, Ruwanwella, Kegalle, Sabaragamuwa ",7.04,80.2,A,,,Zeta Resources Ltd. [33%],,,,Sabaragamuwa,,EL/294,,,,,,,,,,,LKx020,about 40 km E of Colombo,,,,,,,,,,,,2021.0,https://www.margosagraphite.com/projects/waharaka/,https://www.margosagraphite.com/about-us/company-overview/,,,https://www.margosagraphite.com/projects/waharaka/,https://www.margosagraphite.com/wp-content/uploads/2021/11/MargosaGraphiteLimited2021AnnualReport01Nov21.pdf,https://www.margosagraphite.com/projects/waharaka/,,,,,,https://www.zetaresources.limited/application/files/3616/6415/6410/Zeta_2022_Annual_Report_WEB.pdf,,,,https://www.margosagraphite.com/wp-content/uploads/2021/11/MargosaGraphiteLimited2021AnnualReport01Nov21.pdf,,,,,,,,,,,POINT (80.20000000000005 7.0400000000000205),Waharaka Project,Exploration,2021.0,Zeta Resources Ltd. [33%]
Indopacific,INDOPAC_Mineral_Exploration,Sri Lanka,,Warakapola,,,Graphite,Graphite,,Inactive,,,MRL Graphene (PVT) Ltd.,,,LKx21,,,,,,,,,"Warakapola, Kegalle, Sabaragamuwa ",7.17,80.19,A,,,First Graphene Ltd. [100%],,,,Sabaragamuwa,,Bopitiya; Dedigama; EL 228; EL/225; EL/226; EL/227; EL/231; EL/243; EL/244; EL/262; EL/318; EL/321; EL/322; EL/325; EL/326; IML/A/HO/9405; IML/C/HO/8416; Pandeniya,,,,,,,,,,,LKx021,about 46 km NE of Colombo,,,,,,,,,,,,2022.0,http://www.fareastcapital.com.au/imagesDB/newsletter/MRL21August2015.pdf,,,,https://firstgraphene.net/wp-content/uploads/2022/09/FGR-Annual-Report-FY2022.pdf,https://www.proactiveinvestors.com.au/companies/news/136028/mrl-corporation-targets-graphite-production-in-sri-lanka-by-2015-53439.html,https://firstgraphene.net/wp-content/uploads/austocks/fgr/2016_03_17_FGR_1458201623.pdf,,,,,,https://firstgraphene.net/wp-content/uploads/2020/06/20160928-2016-Annual-Report.pdf,,,,https://firstgraphene.net/wp-content/uploads/2022/09/FGR-Annual-Report-FY2022.pdf,https://firstgraphene.net/wp-content/uploads/2020/06/20190830-2019-Annual-Report.pdf,,,,,,,,,,POINT (80.19000000000005 7.170000000000073),Warakapola,Inactive,2022.0,First Graphene Ltd. [100%]
Indopacific,INDOPAC_Mineral_Exploration,Sri Lanka,,Ambalangoda,,,Graphite,Graphite,,Inactive,,,Bora Bora Resources Ltd.,,,LKx22,,,,,,,,,"Baddegama, Galle, Southern ",6.13,80.22,A,,,Bora Bora Resources Ltd.,,,,Southern,,,,,,,,,,,,,LKx022,about 11 km N of Galle,,,,,,,,,,,,2017.0,https://www.asx.com.au/asxpdf/20131031/pdf/42kht4vg9xktq6.pdf,,,,https://www.asx.com.au/asxpdf/20130522/pdf/42g13lqrvxnljm.pdf,http://www.aspecthuntley.com.au/asxdata/20150423/pdf/01618510.pdf,http://www.aspecthuntley.com.au/asxdata/20150423/pdf/01618510.pdf,,,,,,,,,,https://www.capitaliq.spglobal.com/web/client?auth=inherit#metalsAndMiningProperty/profile?id=66738,,,,,,,,,,,POINT (80.22000000000008 6.130000000000052),Ambalangoda,Inactive,2017.0,Bora Bora Resources Ltd.
Indopacific,INDOPAC_Mineral_Exploration,Sri Lanka,,Hilladuwa,,,Graphite,Graphite,,Inactive,,,MRL Graphene (PVT) Ltd.,,,LKx24,,,,,,,,,"Galle, Southern ",6.15,80.14,A,,,First Graphene Ltd. [100%],,,,Southern,,Hikkaduwa,,,,,,,,,,,LKx024,about 16 km NW of Galle,,,,,,,,,,,,2015.0,http://www.fareastcapital.com.au/imagesDB/newsletter/MRL21August2015.pdf,,,,http://www.fareastcapital.com.au/imagesDB/newsletter/MRL21August2015.pdf,,http://www.fareastcapital.com.au/imagesDB/newsletter/MRL21August2015.pdf,,,,,,,,,,https://firstgraphene.net/wp-content/uploads/2022/09/FGR-Annual-Report-FY2022.pdf,https://firstgraphene.net/wp-content/uploads/2020/06/20190830-2019-Annual-Report.pdf,,,,,,,,,,POINT (80.14000000000004 6.150000000000034),Hilladuwa,Inactive,2015.0,First Graphene Ltd. [100%]
Indopacific,INDOPAC_Mineral_Exploration,Sri Lanka,,Neluwa,,,Graphite,Graphite,,Inactive,,,Bora Bora Resources Ltd.,,,LKx25,,,,,,,,,"Neluwa, Galle, Southern ",6.4,80.39,A,,,Bora Bora Resources Ltd.,,,,Southern,,,,,,,,,,,,,LKx025,about 45 km NE of Galle,,,,,,,,,,,,2017.0,https://www.asx.com.au/asxpdf/20131031/pdf/42kht4vg9xktq6.pdf,,,,https://investingnews.com/daily/resource-investing/battery-metals-investing/graphite-investing/bora-boras-neluwa-and-baduraliya-graphite-projects-receive-independent-assessment/,https://www.asiaminer.com/news/archive/136-2013/july-2013/4766-sri-lanka--bora-bora-gains-additional-land.html#.Y6SYpHbMKUk,https://www.asx.com.au/asxpdf/20131031/pdf/42kht4vg9xktq6.pdf,,,,,,,,,,https://www.capitaliq.spglobal.com/web/client?auth=inherit#metalsAndMiningProperty/profile?id=66740,,,,,,,,,,,POINT (80.39000000000004 6.400000000000034),Neluwa,Inactive,2017.0,Bora Bora Resources Ltd.
Indopacific,INDOPAC_Mineral_Exploration,Sri Lanka,,Aluketiya Project,,,Graphite,Graphite,,Exploration,,,Margosa Graphite Ltd.,,,LKx26,,,,,,,,,"Meegahathenna, Walallavita, Kalutara, Western ",6.42,80.19,A,,,Zeta Resources Ltd. [33%],,,,Western,,EL/218,,,,,,,,,,,LKx026,about 15 km NNE of Elpitiya,,,,,,,,,,,,2021.0,https://www.margosagraphite.com/projects/aluketiya/,https://www.margosagraphite.com/about-us/company-overview/,,,https://www.margosagraphite.com/projects/aluketiya/,https://www.margosagraphite.com/wp-content/uploads/2021/11/MargosaGraphiteLimited2021AnnualReport01Nov21.pdf,https://www.margosagraphite.com/projects/aluketiya/,,,,,,https://www.zetaresources.limited/application/files/3616/6415/6410/Zeta_2022_Annual_Report_WEB.pdf,,,,https://www.margosagraphite.com/wp-content/uploads/2021/11/MargosaGraphiteLimited2021AnnualReport01Nov21.pdf,,,,,,,,,,,POINT (80.19000000000005 6.420000000000073),Aluketiya Project,Exploration,2021.0,Zeta Resources Ltd. [33%]
Indopacific,INDOPAC_Mineral_Exploration,Sri Lanka,,Baduralia,,,Graphite,Graphite,,Inactive,,,Bora Bora Resources Ltd.,,,LKx27,,,,,,,,,"Palindanuwara, Kalutara, Western ",6.52,80.25,A,,,Bora Bora Resources Ltd.,,,,Western,,Baduraliya,,,,,,,,,,,LKx027,about 54 km N of Galle,,,,,,,,,,,,2017.0,https://www.asx.com.au/asxpdf/20131031/pdf/42kht4vg9xktq6.pdf,,,,https://investingnews.com/daily/resource-investing/battery-metals-investing/graphite-investing/bora-boras-neluwa-and-baduraliya-graphite-projects-receive-independent-assessment/,https://www.asiaminer.com/news/archive/136-2013/july-2013/4766-sri-lanka--bora-bora-gains-additional-land.html#.Y6SYpHbMKUk,https://www.asx.com.au/asxpdf/20131031/pdf/42kht4vg9xktq6.pdf,,,,,,,,,,https://www.capitaliq.spglobal.com/web/client?auth=inherit#metalsAndMiningProperty/profile?id=66741,,,,,,,,,,,POINT (80.25000000000006 6.520000000000039),Baduralia,Inactive,2017.0,Bora Bora Resources Ltd.
Indopacific,INDOPAC_Mineral_Exploration,Sri Lanka,,Beruwala,,,Graphite,Graphite,,Inactive,,,Lanka Graphite Ltd.,,,LKx28,,,,,,,,,"Maggona, Western ",6.52,80.0153,E,,,Lanka Graphite Ltd.,,,,Western,,EL266; Palayangoda,,,,,,,,,,,LKx028,about 47 km SE of Colombo,,,,,,,,,,,,2021.0,https://www.asx.com.au/asxpdf/20160129/pdf/434pn1qbf286h7.pdf,https://web.archive.org/web/20210518140848/https://lankagraphite.com.au/beruwala-dodangoda/,,,https://www.asx.com.au/asxpdf/20160129/pdf/434pn1qbf286h7.pdf,https://web.archive.org/web/20210518134140/https://lankagraphite.com.au/projects/lanka-graphite-project/,https://web.archive.org/web/20210518140848/https://lankagraphite.com.au/beruwala-dodangoda/,,,,,,,,,,https://www.capitaliq.spglobal.com/web/client?auth=inherit#news/docviewer?id=57555725,,,,,,,,,,,POINT (80.01530000000008 6.520000000000039),Beruwala,Inactive,2021.0,Lanka Graphite Ltd.
Indopacific,INDOPAC_Mineral_Exploration,Sri Lanka,,Dehiowita Project,,,Graphite,Graphite,,Exploration,,,Margosa Graphite Ltd.,,,LKx29,,,,,,,,,"Seethawaka, Colombo, Western ",6.94,80.22,A,,,Zeta Resources Ltd. [33%],,,,Western,,EL/319,,,,,,,,,,,LKx029,about 45 km E of Colombo,,,,,,,,,,,,2021.0,https://www.margosagraphite.com/about-us/company-overview/,,,,https://www.margosagraphite.com/wp-content/uploads/2021/11/MargosaGraphiteLimited2021AnnualReport01Nov21.pdf,,https://www.margosagraphite.com/about-us/company-overview/,,,,,,https://www.zetaresources.limited/application/files/3616/6415/6410/Zeta_2022_Annual_Report_WEB.pdf,,,,https://www.margosagraphite.com/wp-content/uploads/2021/11/MargosaGraphiteLimited2021AnnualReport01Nov21.pdf,,,,,,,,,,,POINT (80.22000000000008 6.940000000000055),Dehiowita Project,Exploration,2021.0,Zeta Resources Ltd. [33%]
Indopacific,INDOPAC_Mineral_Exploration,Sri Lanka,,Hal Project,,,Graphite,Graphite,,Inactive,,,Han Tal Holdings,,,LKx30,,,,,,,,,"Helamba, Mathugama, Kalutara, Western ",6.55,80.12,A,,,Saint Jean Carbon Inc.,,,,Western,,Han Tal Project,,,,,,,,,,,LKx030,about 51 km SE of Colombo,,,,,,,,,,,,2014.0,https://www.capitaliq.spglobal.com/web/client?auth=inherit#metalsAndMiningProperty/location?ID=67602,https://www.google.com/maps,,,https://www.proactiveinvestors.com/companies/news/103602/saint-jean-carbon-gets-tsx-exchange-approval-to-close-sri-lanka-acquisition-57330.html,,https://www.proactiveinvestors.com/companies/news/103602/saint-jean-carbon-gets-tsx-exchange-approval-to-close-sri-lanka-acquisition-57330.html,,,,,,,,,,https://www.capitaliq.spglobal.com/web/client?auth=inherit#metalsAndMiningProperty/location?ID=67602,,,,,,,,,,,POINT (80.12000000000006 6.550000000000068),Hal Project,Inactive,2014.0,Saint Jean Carbon Inc.
Indopacific,INDOPAC_Mineral_Exploration,Sri Lanka,,Mathugama,,,Graphite,Graphite,,Inactive,,,Lanka Graphite Ltd.,,,LKx31,,,,,,,,,"Matugama, Western ",6.54,80.09,A,,,Lanka Graphite Ltd.,,,,Western,,Bopotiya; EL267,,,,,,,,,,,LKx031,about 48 km SE of Colombo,,,,,,,,,,,,2021.0,https://www.asx.com.au/asxpdf/20160129/pdf/434pn1qbf286h7.pdf,https://web.archive.org/web/20210518130404/https://lankagraphite.com.au/mathugama-dodangoda/,,,https://www.asx.com.au/asxpdf/20160129/pdf/434pn1qbf286h7.pdf,https://web.archive.org/web/20210518134140/https://lankagraphite.com.au/projects/lanka-graphite-project/,https://www.asx.com.au/asxpdf/20160129/pdf/434pn1qbf286h7.pdf,,,,,,,,,,https://www.capitaliq.spglobal.com/web/client?auth=inherit#news/docviewer?id=57555725,,,,,,,,,,,POINT (80.09000000000003 6.5400000000000205),Mathugama,Inactive,2021.0,Lanka Graphite Ltd.
Indopacific,INDOPAC_Mineral_Exploration,Sri Lanka,,P1 Development,,,Graphite,Graphite,,Exploration,,,Sarcon Development (PVT) Ltd.,,,LKx32,,,,,,,,,"Pasyala, Mirigama, Gampaha, Western ",7.17,80.11,A,,,Plumbago Refining Corp. B. V. (Ceylon Graphite Corp. (CYL)) [100%],,,,Western,,EL/222; P1; Pasyala,,,,,,,,,,,LKx032,about 38 km NE of Colombo,,,,,,,,,,,,2022.0,https://www.ceylongraphite.com/work-sites/p1-development/,,,,https://www.ceylongraphite.com/work-sites/p1-development/,,https://www.ceylongraphite.com/work-sites/p1-development/,,,,,,,,,,https://www.ceylongraphite.com/work-sites/p1-development/,,,,,,,,,,,POINT (80.11000000000007 7.170000000000073),P1 Development,Exploration,2022.0,Plumbago Refining Corp. B. V. (Ceylon Graphite Corp. (CYL)) [100%]
Indopacific,INDOPAC_Mineral_Exploration,Sri Lanka,,Palinda Nuwara,,,Graphite,Graphite,,Inactive,,,MRL Graphene (PVT) Ltd.,,,LKx33,,,,,,,,,"Kalutara, Western ",6.54,80.28,A,,,First Graphene Ltd. [100%],,,,Western,,,,,,,,,,,,,LKx033,about 14 km E of Agalawatta,,,,,,,,,,,,2015.0,http://www.fareastcapital.com.au/imagesDB/newsletter/MRL21August2015.pdf,,,,http://www.fareastcapital.com.au/imagesDB/newsletter/MRL21August2015.pdf,,http://www.fareastcapital.com.au/imagesDB/newsletter/MRL21August2015.pdf,,,,,,,,,,https://firstgraphene.net/wp-content/uploads/2022/09/FGR-Annual-Report-FY2022.pdf,https://firstgraphene.net/wp-content/uploads/2020/06/20190830-2019-Annual-Report.pdf,,,,,,,,,,POINT (80.28000000000003 6.5400000000000205),Palinda Nuwara,Inactive,2015.0,First Graphene Ltd. [100%]
Indopacific,INDOPAC_Mineral_Exploration,Sri Lanka,,Ridee Ganga Project,,,Graphite,Graphite,,Preliminary Study,,,Margosa Graphite Ltd.,,,LKx34,,,,,,,,,"Remunagoda, Millaniya, Kalutara, Western ",6.61,80.04,A,,,Zeta Resources Ltd. [33%],,,,Western,,EL/219; Pathakada Exploration License,,,,,,,,,,,LKx034,about 40 km SE of Colombo,,,,,,,,,,,,2021.0,https://www.margosagraphite.com/projects/pathakada/,https://www.margosagraphite.com/about-us/company-overview/,,,https://www.margosagraphite.com/projects/pathakada/,https://www.margosagraphite.com/wp-content/uploads/2021/11/MargosaGraphiteLimited2021AnnualReport01Nov21.pdf,https://www.margosagraphite.com/projects/pathakada/,https://www.margosagraphite.com/projects/pathakada/,,,,,https://www.zetaresources.limited/application/files/3616/6415/6410/Zeta_2022_Annual_Report_WEB.pdf,,,,https://www.margosagraphite.com/wp-content/uploads/2021/11/MargosaGraphiteLimited2021AnnualReport01Nov21.pdf,https://www.margosagraphite.com/projects/pathakada/,,,,,,,,,,POINT (80.04000000000008 6.6100000000000705),Ridee Ganga Project,Preliminary Study,2021.0,Zeta Resources Ltd. [33%]
Indopacific,INDOPAC_Mineral_Exploration,Sri Lanka,,Yattawatura Project,,,Graphite,Graphite,,Exploration,,,Margosa Graphite Ltd.,,,LKx35,,,,,,,,,"Padukka, Colombo, Western ",6.86,80.16,A,,,Zeta Resources Ltd. [33%],,,,Western,,EL/271,,,,,,,,,,,LKx035,about 45 km ESE of Colombo,,,,,,,,,,,,2021.0,https://www.margosagraphite.com/about-us/company-overview/,,,,https://www.margosagraphite.com/wp-content/uploads/2021/11/MargosaGraphiteLimited2021AnnualReport01Nov21.pdf,,https://www.margosagraphite.com/about-us/company-overview/,,,,,,https://www.zetaresources.limited/application/files/3616/6415/6410/Zeta_2022_Annual_Report_WEB.pdf,,,,https://www.margosagraphite.com/wp-content/uploads/2021/11/MargosaGraphiteLimited2021AnnualReport01Nov21.pdf,,,,,,,,,,,POINT (80.16000000000008 6.8600000000000705),Yattawatura Project,Exploration,2021.0,Zeta Resources Ltd. [33%]
SW Asia,SWA_Mineral_Facilties,India,Mine in Jharkhand Province,,,Metal,Graphite,,C&M,,56000.0,mt,Sri Krishna Kumar Poddar,,IND298,IND298,Mines and Quarries,,N,N,2018.0,,,,"Murma, Stabarwa District, Jharkhand",23.83,85.43,A,Google Earth,"USGS 2018 Minerals Yearbook, Vol. III, India Country Chapter, Table 2; various other USGS, industry, geologic research, and company reports; various mining databases",,,,,Jharkhand,,,,,,,,,,,,,,,,,,,Mines and Quarries,,,,,,,,,,,,,,,,,,,,,,,,,,,,,,,,,,,POINT (85.43000000000006 23.83000000000004),Mine in Jharkhand Province,C&M,2018.0,
SW Asia,SWA_Mineral_Facilties,India,Quarry in Tamil Nadu Province,,,Metal,Graphite,,Assumed Active,,-999.999,,Tamil Nadu Minerals Ltd.,,IND659,,Mines and Quarries,,Y,N,2018.0,,,,"Pudupatti, Kumaripatti and Senthiudayanathapuram Villages of Sivaganga taluk, Sivagangai District, Tamil Nadu",11.35,78.18,A,Google Earth,"USGS 2018 Minerals Yearbook, Vol. III, India Country Chapter, Table 2; various other USGS, industry, geologic research, and company reports; various mining databases",Government of India [100%],,,,Tamil Nadu,,,,,,,,,,,,,,,,,,,Mines and Quarries,,,,,,,,,,,,,,,,,,,,,,,,,,,,,,,,,,,POINT (78.18000000000006 11.350000000000023),Quarry in Tamil Nadu Province,Assumed Active,2018.0,Government of India [100%]
SW Asia,SWA_Mineral_Facilties,India,Tamil Nadu Minerals Graphite Benefication Plant,,,Metal,Graphite,,Assumed Active,,7000.0,mt,Tamil Nadu Minerals Ltd.,,IND758,IND758,Mines and Quarries,,N,N,2018.0,,,,"Senthi Udayanathapuram Village, Sivaganga District, Tamil Nadu",11.35,78.18,A,Google Earth,"USGS 2018 Minerals Yearbook, Vol. III, India Country Chapter, Table 2; various other USGS, industry, geologic research, and company reports; various mining databases",Government of India [100%],,,,Tamil Nadu,,,,,,,,,,,,,,,,,,,Mines and Quarries,,,,,,,,,,,,,,,,,,,,,,,,,,,,,,,,,,,POINT (78.18000000000006 11.350000000000023),Tamil Nadu Minerals Graphite Benefication Plant,Assumed Active,2018.0,Government of India [100%]
SW Asia,SWA_Mineral_Facilties,"Korea, North",Sinwon Mine,,,Industrial,Graphite,,Assumed Active,,-999.999,,,,PRK017,PRK17,Mines and Quarries,,N,N,2018.0,,,,"Sinwon Mine, Sinwon-ri, Kimhyonggwon Co, Ryanggang Province",40.8448,128.0808,E,Google Earth,"USGS 2018 Minerals Yearbook, Vol. III, North Korea Country Chapter, Table 2; various other USGS, industry, geologic research, and company reports; various mining databases",,,,,Ryanggang,,,,,,,,,,,,,,,,,,,Mines and Quarries,,,,,,,,,,,,,,,,,,,,,,,,,,,,,,,,,,,POINT (128.08080000000007 40.84480000000008),Sinwon Mine,Assumed Active,2018.0,
SW Asia,SWA_Mineral_Facilties,"Korea, North",Wonri Mine,,,Industrial,Graphite,,Assumed Active,,1000.0,mt,Ministry of Metallurgical Industry,,PRK035,PRK35,Mines and Quarries,Graphite (amorphous),N,N,2018.0,E,,,"Wonri Mine, Kaechon, Gaecheon, South Pyongan Province",39.7633,125.9213,E,Google Earth,"USGS 2018 Minerals Yearbook, Vol. III, North Korea Country Chapter, Table 2; various other USGS, industry, geologic research, and company reports; various mining databases",,,,,South Pyongan,,,,,,,,,,,,,,,,,,,Mines and Quarries,,,,,,,,,,,,,,,,,,,,,,,,,,,,,,,,,,,POINT (125.92130000000009 39.76330000000007),Wonri Mine,Assumed Active,2018.0,
SW Asia,SWA_Mineral_Facilties,"Korea, North",Yongchon (Ryongchon) Mine,,,Industrial,Graphite,,C&M,,-999.999,,,,PRK041,PRK41,Mines and Quarries,,N,N,2018.0,,,,"Yongchon, Ryongchon Mine, Inheung-ri, Yongchon, Ryongchon Co, North Pyongan Province",39.9741,124.4177,E,Google Earth,"USGS 2018 Minerals Yearbook, Vol. III, North Korea Country Chapter, Table 2; various other USGS, industry, geologic research, and company reports; various mining databases",,,,,North Pyongan,,,,,,,,,,,,,,,,,,,Mines and Quarries,,,,,,,,,,,,,,,,,,,,,,,,,,,,,,,,,,,POINT (124.41770000000008 39.97410000000008),Yongchon (Ryongchon) Mine,C&M,2018.0,
SW Asia,SWA_Mineral_Facilties,"Korea, North",Heungsan Mine,,,Industrial,Graphite,,Assumed Active,,2000.0,mt,Ministry of Metallurgical Industry,,PRK081,PRK81,Mines and Quarries,Graphite (crystalline flake),N,N,2018.0,E,,,"Heungsan Mine, Chungdan County, South Hwanghae Province",37.988,125.9998,E,Google Earth,"USGS 2018 Minerals Yearbook, Vol. III, North Korea Country Chapter, Table 2; various other USGS, industry, geologic research, and company reports; various mining databases",,,,,South Hwanghae,,,,,,,,,,,,,,,,,,,Mines and Quarries,,,,,,,,,,,,,,,,,,,,,,,,,,,,,,,,,,,POINT (125.99980000000005 37.988000000000056),Heungsan Mine,Assumed Active,2018.0,
SW Asia,SWA_Mineral_Facilties,"Korea, North",Jeongchon Mine,,,Industrial,Graphite,,Assumed Active,,3000.0,mt,Kwangmyongsong General Corp.,,PRK092,PRK92,Mines and Quarries,Graphite (crystalline flake),N,N,2018.0,E,,,"Jeongchon Mine, Yon-an County, South Hwanghae Province",37.9181,126.1135,E,Google Earth,"USGS 2018 Minerals Yearbook, Vol. III, North Korea Country Chapter, Table 2; various other USGS, industry, geologic research, and company reports; various mining databases",,,,,South Hwanghae,,,,,,,,,,,,,,,,,,,Mines and Quarries,,,,,,,,,,,,,,,,,,,,,,,,,,,,,,,,,,,POINT (126.11350000000004 37.91810000000004),Jeongchon Mine,Assumed Active,2018.0,
SW Asia,SWA_Mineral_Deposits,Afghanistan,,,Istrombi,,Graphite,Graphite,,,,,,,,AFd28,,,,,,,,,,36.1985,70.772,,,,,,,,Badakhshan,"Schulz and Briskey, 2005 (USGS Open-File Report 2005-1294: https://pubs.usgs.gov/of/2005/1294/); U.S. Geological Survey Mineral Resources Online Spatial Data [https://mrdata.usgs.gov/general/map-global.html]",,AFd0028,,,,,,,,Unknown graphite,,,,,,,,,,,,,,,,,,,,,,,,,,,,,,,,,,,,,Yes,,,,,,POINT (70.77200000000005 36.198500000000024),Istrombi,,,
SW Asia,SWA_Mineral_Deposits,Afghanistan,,,Sanglich Graphite,,Graphite,Graphite,,,,,,,,AFd52,,,,,,,,,,36.6606,71.3423,,,,,,,,Badakhshan,"Schulz and Briskey, 2005 (USGS Open-File Report 2005-1294: https://pubs.usgs.gov/of/2005/1294/); U.S. Geological Survey Mineral Resources Online Spatial Data [https://mrdata.usgs.gov/general/map-global.html]",,AFd0052,,,,,,,,Unknown graphite,,,,,,,,,,,,,,,,,,,,,,,,,,,,,,,,,,,,,Yes,,,,,,POINT (71.34230000000008 36.660600000000045),Sanglich Graphite,,,
SW Asia,SWA_Mineral_Deposits,Afghanistan,,,Yakhdarra,,Graphite,Graphite,,,,,,,,AFd110,,,,,,,,,,36.9877,71.3627,,,,,,,,Badakhshan,"Schulz and Briskey, 2005 (USGS Open-File Report 2005-1294: https://pubs.usgs.gov/of/2005/1294/); U.S. Geological Survey Mineral Resources Online Spatial Data [https://mrdata.usgs.gov/general/map-global.html]",,AFd0110,,,,,,,,Unknown graphite,,,,,,,,,,,,,,,,,,,,,,,,,,,,,,,,,,,,,Yes,,,,,,POINT (71.36270000000007 36.987700000000075),Yakhdarra,,,
SW Asia,SWA_Mineral_Deposits,Afghanistan,,,Khawri,,Graphite,Graphite,,,,,,,,AFd520,,,,,,,,,,34.2171,69.7516,,,,,,,,Kabul,"Schulz and Briskey, 2005 (USGS Open-File Report 2005-1294: https://pubs.usgs.gov/of/2005/1294/); U.S. Geological Survey Mineral Resources Online Spatial Data [https://mrdata.usgs.gov/general/map-global.html]",,AFd0520,,,,,,,,Unknown graphite,,,,,,,,,,,,,,,,,,,,,,,,,,,,,,,,,,,,,Yes,,,,,,POINT (69.75160000000005 34.21710000000007),Khawri,,,
SW Asia,SWA_Mineral_Deposits,Afghanistan,,,Charkh Graphite,,Graphite,Graphite,,,,,,,,AFd696,,,,,,,,,,33.7546,68.8844,,,,,,,,Lowgar,"Schulz and Briskey, 2005 (USGS Open-File Report 2005-1294: https://pubs.usgs.gov/of/2005/1294/); U.S. Geological Survey Mineral Resources Online Spatial Data [https://mrdata.usgs.gov/general/map-global.html]",,AFd0696,,,,,,,,Unknown graphite,,,,,,,,,,,,,,,,,,,,,,,,,,,,,,,,,,,,,Yes,,,,,,POINT (68.88440000000003 33.75460000000004),Charkh Graphite,,,
SW Asia,SWA_Mineral_Deposits,Afghanistan,,,Shahkabul,,Graphite,Graphite,,,,,,,,AFd742,,,,,,,,,,34.3227,68.8235,,,,,,,,Meydan,"Schulz and Briskey, 2005 (USGS Open-File Report 2005-1294: https://pubs.usgs.gov/of/2005/1294/); U.S. Geological Survey Mineral Resources Online Spatial Data [https://mrdata.usgs.gov/general/map-global.html]",,AFd0742,,,,,,,,Unknown graphite,,,,,,,,,,,,,,,,,,,,,,,,,,,,,,,,,,,,,Yes,,,,,,POINT (68.82350000000008 34.322700000000054),Shahkabul,,,
SW Asia,SWA_Mineral_Deposits,India,,,East Godavari,,Graphite,Graphite,,,,,,,,INd11,,,,,,,,,,17.38317,81.85029,,,,,,,,Andhra Pradesh,"Schulz and Briskey, 2005 (USGS Open-File Report 2005-1294: https://pubs.usgs.gov/of/2005/1294/); U.S. Geological Survey Mineral Resources Online Spatial Data [https://mrdata.usgs.gov/general/map-global.html]",,INd011,,,,,,,,Crystalline graphite,,,,,,,,,,,,,,,,,,,,,,,,,,,,,,,,,,,,,Yes,,,,,,POINT (81.85029000000003 17.383170000000064),East Godavari,,,
SW Asia,SWA_Mineral_Deposits,India,,,Srikakulam,,Graphite,Graphite,,,,,,,,INd19,,,,,,,,,,18.33308,83.10026,,,,,,,,Andhra Pradesh,"Schulz and Briskey, 2005 (USGS Open-File Report 2005-1294: https://pubs.usgs.gov/of/2005/1294/); U.S. Geological Survey Mineral Resources Online Spatial Data [https://mrdata.usgs.gov/general/map-global.html]",,INd019,,,,,,,,Crystalline graphite,,,,,,,,,,,,,,,,,,,,,,,,,,,,,,,,,,,,,Yes,,,,,,POINT (83.10026000000005 18.333080000000052),Srikakulam,,,
SW Asia,SWA_Mineral_Deposits,India,,,Visakhapatnam,,Graphite,Graphite,,,,,,,,INd21,,,,,,,,,,18.01651,82.93356,,,,,,,,Andhra Pradesh,"Schulz and Briskey, 2005 (USGS Open-File Report 2005-1294: https://pubs.usgs.gov/of/2005/1294/); U.S. Geological Survey Mineral Resources Online Spatial Data [https://mrdata.usgs.gov/general/map-global.html]",,INd021,,,,,,,,Crystalline graphite,,,,,,,,,,,,,,,,,,,,,,,,,,,,,,,,,,,,,Yes,,,,,,POINT (82.93356000000006 18.01651000000004),Visakhapatnam,,,
SW Asia,SWA_Mineral_Deposits,India,,,Khamdih,,Graphite,Graphite,,,,,,,,INd47,,,,,,,,,,23.96598,84.21694,,,,,,,,Jharkhand,"Schulz and Briskey, 2005 (USGS Open-File Report 2005-1294: https://pubs.usgs.gov/of/2005/1294/); U.S. Geological Survey Mineral Resources Online Spatial Data [https://mrdata.usgs.gov/general/map-global.html]",,INd047,,,,,,,,Crystalline graphite,,,,,,,,,,,,,,,,,,,,,,,,,,,,,,,,,,,,,Yes,,,,,,POINT (84.21694000000008 23.96598000000006),Khamdih,,,
SW Asia,SWA_Mineral_Deposits,India,,,Sokra,,Graphite,Graphite,,,,,,,,INd51,,,,,,,,,,23.96598,84.13354,,,,,,,,Jharkhand,"Schulz and Briskey, 2005 (USGS Open-File Report 2005-1294: https://pubs.usgs.gov/of/2005/1294/); U.S. Geological Survey Mineral Resources Online Spatial Data [https://mrdata.usgs.gov/general/map-global.html]",,INd051,,,,,,,,Crystalline graphite,,,,,,,,,,,,,,,,,,,,,,,,,,,,,,,,,,,,,Yes,,,,,,POINT (84.13354000000004 23.96598000000006),Sokra,,,
SW Asia,SWA_Mineral_Deposits,India,,,Dandatapa Area,,Graphite,Graphite,,,,,,,,INd103,,,,,,,,,,20.79955,84.60022,,,,,,,,Odisha,"Schulz and Briskey, 2005 (USGS Open-File Report 2005-1294: https://pubs.usgs.gov/of/2005/1294/); U.S. Geological Survey Mineral Resources Online Spatial Data [https://mrdata.usgs.gov/general/map-global.html]",,INd103,,,,,,,,Crystalline graphite,,,,,,,,,,,,,,,,,,,,,,,,,,,,,,,,,,,,,Yes,,,,,,POINT (84.60022000000004 20.799550000000067),Dandatapa Area,,,
SW Asia,SWA_Mineral_Deposits,India,,,Sargipali Area,,Graphite,Graphite,,,,,,,,INd125,,,,,,,,,,20.89955,83.08356,,,,,,,,Odisha,"Schulz and Briskey, 2005 (USGS Open-File Report 2005-1294: https://pubs.usgs.gov/of/2005/1294/); U.S. Geological Survey Mineral Resources Online Spatial Data [https://mrdata.usgs.gov/general/map-global.html]",,INd125,,,,,,,,Crystalline graphite,,,,,,,,,,,,,,,,,,,,,,,,,,,,,,,,,,,,,Yes,,,,,,POINT (83.08356000000003 20.899550000000033),Sargipali Area,,,
